[{"model": "foodtracks.trackfood", "pk": 1372, "fields": {"applicant": "test", "locationdescription": "aaaa", "address": "test2", "latitude": 11.0, "longitude": 11.0, "facilitytype": "Truck", "objectid": null, "schedule": "aa"}}, {"model": "foodtracks.trackfood", "pk": 1373, "fields": {"applicant": "The Geez Freeze", "locationdescription": "18TH ST: DOLORES ST to CHURCH ST (3700 - 3799)", "address": "3750 18TH ST", "latitude": 37.76201920035647, "longitude": -122.42730642251333, "facilitytype": "Truck", "objectid": 1571753, "schedule": "http://bsm.sfdpw.org/PermitsTracker/reports/report.aspx?title=schedule&report=rptSchedule&params=permit=21MFF-00015&ExportPDF=1&Filename=21MFF-00015_schedule.pdf"}}, {"model": "foodtracks.trackfood", "pk": 1374, "fields": {"applicant": "MOMO INNOVATION LLC", "locationdescription": "CALIFORNIA ST: DAVIS ST to FRONT ST (100 - 199)", "address": "101 CALIFORNIA ST", "latitude": 37.79294895283466, "longitude": -122.39809861316652, "facilitytype": "Truck", "objectid": 1565571, "schedule": "http://bsm.sfdpw.org/PermitsTracker/reports/report.aspx?title=schedule&report=rptSchedule&params=permit=21MFF-00089&ExportPDF=1&Filename=21MFF-00089_schedule.pdf"}}, {"model": "foodtracks.trackfood", "pk": 1375, "fields": {"applicant": "Treats by the Bay LLC", "locationdescription": "POST ST: MONTGOMERY ST to LICK PL (1 - 40)", "address": "1 MONTGOMERY ST", "latitude": 37.78924953407508, "longitude": -122.40241859729358, "facilitytype": "Truck", "objectid": 1565954, "schedule": "http://bsm.sfdpw.org/PermitsTracker/reports/report.aspx?title=schedule&report=rptSchedule&params=permit=21MFF-00094&ExportPDF=1&Filename=21MFF-00094_schedule.pdf"}}, {"model": "foodtracks.trackfood", "pk": 1376, "fields": {"applicant": "MOMO INNOVATION LLC", "locationdescription": "MISSION ST: ANNIE ST to 03RD ST (663 - 699)", "address": "667 MISSION ST", "latitude": 37.7865580501799, "longitude": -122.40103337534973, "facilitytype": "Truck", "objectid": 1565594, "schedule": "http://bsm.sfdpw.org/PermitsTracker/reports/report.aspx?title=schedule&report=rptSchedule&params=permit=21MFF-00090&ExportPDF=1&Filename=21MFF-00090_schedule.pdf"}}, {"model": "foodtracks.trackfood", "pk": 1377, "fields": {"applicant": "Ziaurehman Amini", "locationdescription": "MARKET ST: DRUMM ST intersection", "address": "5 THE EMBARCADERO", "latitude": 37.794331003246846, "longitude": -122.39581105302317, "facilitytype": "Push Cart", "objectid": 735318, "schedule": "http://bsm.sfdpw.org/PermitsTracker/reports/report.aspx?title=schedule&report=rptSchedule&params=permit=15MFF-0159&ExportPDF=1&Filename=15MFF-0159_schedule.pdf"}}, {"model": "foodtracks.trackfood", "pk": 1378, "fields": {"applicant": "Treats by the Bay LLC", "locationdescription": "ELLIS ST: POWELL ST to CYRIL MAGNIN ST (100 - 148)", "address": "120 ELLIS ST", "latitude": 37.78561008636915, "longitude": -122.40815476434544, "facilitytype": "Truck", "objectid": 1565628, "schedule": "http://bsm.sfdpw.org/PermitsTracker/reports/report.aspx?title=schedule&report=rptSchedule&params=permit=21MFF-00093&ExportPDF=1&Filename=21MFF-00093_schedule.pdf"}}, {"model": "foodtracks.trackfood", "pk": 1379, "fields": {"applicant": "San Francisco Taco Truck", "locationdescription": "WILLIAMS AVE: APOLLO ST to PHELPS ST \\ VESTA ST (300 - 399)", "address": "345 WILLIAMS AVE", "latitude": 37.72980548057414, "longitude": -122.39924710472444, "facilitytype": "Truck", "objectid": 1612646, "schedule": "http://bsm.sfdpw.org/PermitsTracker/reports/report.aspx?title=schedule&report=rptSchedule&params=permit=22MFF-00030&ExportPDF=1&Filename=22MFF-00030_schedule.pdf"}}, {"model": "foodtracks.trackfood", "pk": 1380, "fields": {"applicant": "Sunset Mercantile/Outer Sunset Farmers Market & Mercantile", "locationdescription": "37TH AVE: QUINTARA ST to RIVERA ST (2100 - 2199)", "address": "2155 37TH AVE", "latitude": 37.74732654654123, "longitude": -122.49628067270532, "facilitytype": "Truck", "objectid": 1612654, "schedule": "http://bsm.sfdpw.org/PermitsTracker/reports/report.aspx?title=schedule&report=rptSchedule&params=permit=22MFF-00031&ExportPDF=1&Filename=22MFF-00031_schedule.pdf"}}, {"model": "foodtracks.trackfood", "pk": 1381, "fields": {"applicant": "DO UC US Mobile Catering", "locationdescription": "MARIN ST: KANSAS ST to HWY 101 N ON RAMP (2500 - 2599)", "address": "2590 MARIN ST", "latitude": 37.74837582577795, "longitude": -122.40320062649582, "facilitytype": "Truck", "objectid": 1571649, "schedule": "http://bsm.sfdpw.org/PermitsTracker/reports/report.aspx?title=schedule&report=rptSchedule&params=permit=21MFF-00107&ExportPDF=1&Filename=21MFF-00107_schedule.pdf"}}, {"model": "foodtracks.trackfood", "pk": 1382, "fields": {"applicant": "Truly Food & More", "locationdescription": "MISSION ST: 02ND ST to NEW MONTGOMERY ST (600 - 634)", "address": "602 MISSION ST", "latitude": 37.78797328321604, "longitude": -122.40018504988888, "facilitytype": "Truck", "objectid": 1591821, "schedule": "http://bsm.sfdpw.org/PermitsTracker/reports/report.aspx?title=schedule&report=rptSchedule&params=permit=22MFF-00019&ExportPDF=1&Filename=22MFF-00019_schedule.pdf"}}, {"model": "foodtracks.trackfood", "pk": 1383, "fields": {"applicant": "Truly Food & More", "locationdescription": "SANSOME ST: PINE ST to CALIFORNIA ST (200 - 299)", "address": "217 SANSOME ST", "latitude": 37.79238986198323, "longitude": -122.40126969523558, "facilitytype": "Truck", "objectid": 1591820, "schedule": "http://bsm.sfdpw.org/PermitsTracker/reports/report.aspx?title=schedule&report=rptSchedule&params=permit=22MFF-00019&ExportPDF=1&Filename=22MFF-00019_schedule.pdf"}}, {"model": "foodtracks.trackfood", "pk": 1384, "fields": {"applicant": "MOMO INNOVATION LLC", "locationdescription": "BUSH ST: BATTERY ST to SANSOME ST (100 - 199)", "address": "1 BUSH ST", "latitude": 37.79092150726921, "longitude": -122.4001004237385, "facilitytype": "Truck", "objectid": 1565413, "schedule": "http://bsm.sfdpw.org/PermitsTracker/reports/report.aspx?title=schedule&report=rptSchedule&params=permit=21MFF-00088&ExportPDF=1&Filename=21MFF-00088_schedule.pdf"}}, {"model": "foodtracks.trackfood", "pk": 1385, "fields": {"applicant": "MOMO INNOVATION LLC", "locationdescription": "MISSION ST: SHAW ALY to ANTHONY ST (543 - 586)", "address": "555 MISSION ST", "latitude": 37.78844615690132, "longitude": -122.3986412420388, "facilitytype": "Truck", "objectid": 1565414, "schedule": "http://bsm.sfdpw.org/PermitsTracker/reports/report.aspx?title=schedule&report=rptSchedule&params=permit=21MFF-00088&ExportPDF=1&Filename=21MFF-00088_schedule.pdf"}}, {"model": "foodtracks.trackfood", "pk": 1386, "fields": {"applicant": "Treats by the Bay LLC", "locationdescription": "HOWARD ST: MALDEN ALY to 02ND ST (574 - 599)", "address": "201 02ND ST", "latitude": 37.78680165059711, "longitude": -122.39787163500326, "facilitytype": "Truck", "objectid": 1565623, "schedule": "http://bsm.sfdpw.org/PermitsTracker/reports/report.aspx?title=schedule&report=rptSchedule&params=permit=21MFF-00091&ExportPDF=1&Filename=21MFF-00091_schedule.pdf"}}, {"model": "foodtracks.trackfood", "pk": 1387, "fields": {"applicant": "Truly Food & More", "locationdescription": "01ST ST: HOWARD ST to TEHAMA ST (200 - 231)", "address": "505 HOWARD ST", "latitude": 37.78798864899528, "longitude": -122.39610066847152, "facilitytype": "Truck", "objectid": 1591819, "schedule": "http://bsm.sfdpw.org/PermitsTracker/reports/report.aspx?title=schedule&report=rptSchedule&params=permit=22MFF-00019&ExportPDF=1&Filename=22MFF-00019_schedule.pdf"}}, {"model": "foodtracks.trackfood", "pk": 1388, "fields": {"applicant": "Bonito Poke", "locationdescription": "ILLINOIS ST: 16TH ST to MARIPOSA ST \\ TERRY A FRANCOIS BLVD (400 - 599)", "address": "409 ILLINOIS ST", "latitude": 37.76624504710292, "longitude": -122.38735628651092, "facilitytype": "Truck", "objectid": 1585955, "schedule": "http://bsm.sfdpw.org/PermitsTracker/reports/report.aspx?title=schedule&report=rptSchedule&params=permit=21MFF-00148&ExportPDF=1&Filename=21MFF-00148_schedule.pdf"}}, {"model": "foodtracks.trackfood", "pk": 1389, "fields": {"applicant": "Curry Up Now", "locationdescription": "WASHINGTON ST: DRUMM ST intersection", "address": "370 DRUMM ST", "latitude": 37.79691371248354, "longitude": -122.39665067526364, "facilitytype": "Truck", "objectid": 1585964, "schedule": "http://bsm.sfdpw.org/PermitsTracker/reports/report.aspx?title=schedule&report=rptSchedule&params=permit=21MFF-00149&ExportPDF=1&Filename=21MFF-00149_schedule.pdf"}}, {"model": "foodtracks.trackfood", "pk": 1390, "fields": {"applicant": "San Pancho's Tacos", "locationdescription": "ALEMANY BLVD: SICKLES AVE to I-280 N ON RAMP \\ REGENT ST \\ SAN JOSE AVE (3101 - 3155) -- SOUTH --", "address": "3119 ALEMANY BLVD", "latitude": 37.71019301997575, "longitude": -122.4552219061259, "facilitytype": "Truck", "objectid": 1598473, "schedule": "http://bsm.sfdpw.org/PermitsTracker/reports/report.aspx?title=schedule&report=rptSchedule&params=permit=22MFF-00028&ExportPDF=1&Filename=22MFF-00028_schedule.pdf"}}, {"model": "foodtracks.trackfood", "pk": 1391, "fields": {"applicant": "San Francisco Carts & Concessions, Inc. DBA Stanley's Steamers Hot Dogs", "locationdescription": "GEARY ST: GRANT AVE to STOCKTON ST (100 - 199)", "address": "100 GEARY ST", "latitude": 37.7879142297241, "longitude": -122.4052705230952, "facilitytype": "Push Cart", "objectid": 1571660, "schedule": "http://bsm.sfdpw.org/PermitsTracker/reports/report.aspx?title=schedule&report=rptSchedule&params=permit=21MFF-00111&ExportPDF=1&Filename=21MFF-00111_schedule.pdf"}}, {"model": "foodtracks.trackfood", "pk": 1392, "fields": {"applicant": "Zuri Food Facilities", "locationdescription": "CALIFORNIA ST: LEIDESDORFF ST to MONTGOMERY ST (449 - 499)", "address": "475 CALIFORNIA ST", "latitude": 37.792346385148, "longitude": -122.40238532279396, "facilitytype": "Truck", "objectid": 1589658, "schedule": "http://bsm.sfdpw.org/PermitsTracker/reports/report.aspx?title=schedule&report=rptSchedule&params=permit=22MFF-00005&ExportPDF=1&Filename=22MFF-00005_schedule.pdf"}}, {"model": "foodtracks.trackfood", "pk": 1393, "fields": {"applicant": "Halal Cart of San Francisco", "locationdescription": "CALIFORNIA ST: LEIDESDORFF ST to MONTGOMERY ST (449 - 499)", "address": "400 MONTGOMERY ST", "latitude": 37.79314862698347, "longitude": -122.4025671755779, "facilitytype": "Push Cart", "objectid": 1591833, "schedule": "http://bsm.sfdpw.org/PermitsTracker/reports/report.aspx?title=schedule&report=rptSchedule&params=permit=22MFF-00023&ExportPDF=1&Filename=22MFF-00023_schedule.pdf"}}, {"model": "foodtracks.trackfood", "pk": 1394, "fields": {"applicant": "Bonito Poke", "locationdescription": "01ST ST: HOWARD ST to TEHAMA ST (200 - 231)", "address": "505 HOWARD ST", "latitude": 37.78798864899528, "longitude": -122.39610066847152, "facilitytype": "Truck", "objectid": 1585952, "schedule": "http://bsm.sfdpw.org/PermitsTracker/reports/report.aspx?title=schedule&report=rptSchedule&params=permit=21MFF-00148&ExportPDF=1&Filename=21MFF-00148_schedule.pdf"}}, {"model": "foodtracks.trackfood", "pk": 1395, "fields": {"applicant": "The New York Frankfurter Co. of CA, Inc. DBA: Annie's Hot Dogs", "locationdescription": "STOCKTON ST: 04TH ST \\ ELLIS ST \\ MARKET ST intersection", "address": "800 MARKET ST", "latitude": 37.78546974648992, "longitude": -122.40661576107294, "facilitytype": "Push Cart", "objectid": 1577204, "schedule": "http://bsm.sfdpw.org/PermitsTracker/reports/report.aspx?title=schedule&report=rptSchedule&params=permit=21MFF-00129&ExportPDF=1&Filename=21MFF-00129_schedule.pdf"}}, {"model": "foodtracks.trackfood", "pk": 1396, "fields": {"applicant": "The New York Frankfurter Co. of CA, Inc. DBA: Annie's Hot Dogs", "locationdescription": "STOCKTON ST: OFARRELL ST to GEARY ST (100 - 199)", "address": "101 STOCKTON ST", "latitude": 37.786856111883054, "longitude": -122.40689189299718, "facilitytype": "Push Cart", "objectid": 1577206, "schedule": "http://bsm.sfdpw.org/PermitsTracker/reports/report.aspx?title=schedule&report=rptSchedule&params=permit=21MFF-00131&ExportPDF=1&Filename=21MFF-00131_schedule.pdf"}}, {"model": "foodtracks.trackfood", "pk": 1397, "fields": {"applicant": "Curry Up Now", "locationdescription": "SANSOME ST: GOLD ST to PACIFIC AVE (705 - 799)", "address": "727 SANSOME ST", "latitude": 37.79694900602121, "longitude": -122.40218343189426, "facilitytype": "Truck", "objectid": 1585966, "schedule": "http://bsm.sfdpw.org/PermitsTracker/reports/report.aspx?title=schedule&report=rptSchedule&params=permit=21MFF-00150&ExportPDF=1&Filename=21MFF-00150_schedule.pdf"}}, {"model": "foodtracks.trackfood", "pk": 1398, "fields": {"applicant": "Curry Up Now", "locationdescription": "03RD ST: BRANNAN ST to TOWNSEND ST (600 - 699)", "address": "601 03RD ST", "latitude": 37.78007717443923, "longitude": -122.39376729448306, "facilitytype": "Truck", "objectid": 1585967, "schedule": "http://bsm.sfdpw.org/PermitsTracker/reports/report.aspx?title=schedule&report=rptSchedule&params=permit=21MFF-00150&ExportPDF=1&Filename=21MFF-00150_schedule.pdf"}}, {"model": "foodtracks.trackfood", "pk": 1399, "fields": {"applicant": "Bonito Poke", "locationdescription": "HOWARD ST: FREMONT ST to 01ST ST (400 - 499)", "address": "400 HOWARD ST", "latitude": 37.78911920766765, "longitude": -122.39588103933524, "facilitytype": "Truck", "objectid": 1585954, "schedule": "http://bsm.sfdpw.org/PermitsTracker/reports/report.aspx?title=schedule&report=rptSchedule&params=permit=21MFF-00148&ExportPDF=1&Filename=21MFF-00148_schedule.pdf"}}, {"model": "foodtracks.trackfood", "pk": 1400, "fields": {"applicant": "The New York Frankfurter Co. of CA, Inc. DBA: Annie's Hot Dogs", "locationdescription": "MARKET ST: 04TH ST \\ ELLIS ST \\ STOCKTON ST to POWELL ST (800 - 890) -- NORTH --", "address": "870 MARKET ST", "latitude": 37.78511092044776, "longitude": -122.40742266827704, "facilitytype": "Push Cart", "objectid": 1577205, "schedule": "http://bsm.sfdpw.org/PermitsTracker/reports/report.aspx?title=schedule&report=rptSchedule&params=permit=21MFF-00130&ExportPDF=1&Filename=21MFF-00130_schedule.pdf"}}, {"model": "foodtracks.trackfood", "pk": 1401, "fields": {"applicant": "Bonito Poke", "locationdescription": "CALIFORNIA ST: SANSOME ST to LEIDESDORFF ST (400 - 448)", "address": "430 CALIFORNIA ST", "latitude": 37.793262206923096, "longitude": -122.4017890913628, "facilitytype": "Truck", "objectid": 1585953, "schedule": "http://bsm.sfdpw.org/PermitsTracker/reports/report.aspx?title=schedule&report=rptSchedule&params=permit=21MFF-00148&ExportPDF=1&Filename=21MFF-00148_schedule.pdf"}}, {"model": "foodtracks.trackfood", "pk": 1402, "fields": {"applicant": "Zuri Food Facilities", "locationdescription": "SPEAR ST: MISSION ST to HOWARD ST (100 - 199)", "address": "100 SPEAR ST", "latitude": 37.792150548481686, "longitude": -122.39399997405944, "facilitytype": "Truck", "objectid": 1589659, "schedule": "http://bsm.sfdpw.org/PermitsTracker/reports/report.aspx?title=schedule&report=rptSchedule&params=permit=22MFF-00006&ExportPDF=1&Filename=22MFF-00006_schedule.pdf"}}, {"model": "foodtracks.trackfood", "pk": 1403, "fields": {"applicant": "Philz Coffee Truck", "locationdescription": "SUTTER ST: POWELL ST to MASON ST (500 - 599)", "address": "556 SUTTER ST", "latitude": 37.789385451039095, "longitude": -122.4095912604668, "facilitytype": "Truck", "objectid": 1589647, "schedule": "http://bsm.sfdpw.org/PermitsTracker/reports/report.aspx?title=schedule&report=rptSchedule&params=permit=22MFF-00001&ExportPDF=1&Filename=22MFF-00001_schedule.pdf"}}, {"model": "foodtracks.trackfood", "pk": 1404, "fields": {"applicant": "Zuri Food Facilities", "locationdescription": "02ND ST: STILLMAN ST to BRYANT ST (454 - 499)", "address": "490 02ND ST", "latitude": 37.78304609975, "longitude": -122.39406659922962, "facilitytype": "Truck", "objectid": 1589657, "schedule": "http://bsm.sfdpw.org/PermitsTracker/reports/report.aspx?title=schedule&report=rptSchedule&params=permit=22MFF-00004&ExportPDF=1&Filename=22MFF-00004_schedule.pdf"}}, {"model": "foodtracks.trackfood", "pk": 1405, "fields": {"applicant": "Philz Coffee Truck", "locationdescription": "CALIFORNIA ST: SANSOME ST to LEIDESDORFF ST (400 - 448)", "address": "401 CALIFORNIA ST", "latitude": 37.79279574157871, "longitude": -122.40135328093122, "facilitytype": "Truck", "objectid": 1589648, "schedule": "http://bsm.sfdpw.org/PermitsTracker/reports/report.aspx?title=schedule&report=rptSchedule&params=permit=22MFF-00001&ExportPDF=1&Filename=22MFF-00001_schedule.pdf"}}, {"model": "foodtracks.trackfood", "pk": 1406, "fields": {"applicant": "San Pancho's Tacos", "locationdescription": "CAPITOL AVE: DE MONTFORT AVE to OCEAN AVE (1200 - 1299)", "address": "1271 CAPITOL AVE", "latitude": 37.72429777852764, "longitude": -122.4593773095484, "facilitytype": "Truck", "objectid": 1598475, "schedule": "http://bsm.sfdpw.org/PermitsTracker/reports/report.aspx?title=schedule&report=rptSchedule&params=permit=22MFF-00028&ExportPDF=1&Filename=22MFF-00028_schedule.pdf"}}, {"model": "foodtracks.trackfood", "pk": 1407, "fields": {"applicant": "Halal Cart, LLC", "locationdescription": "MONTGOMERY ST: CALIFORNIA ST to SACRAMENTO ST (400 - 499)", "address": "400 MONTGOMERY ST", "latitude": 37.79314862698347, "longitude": -122.4025671755779, "facilitytype": "Push Cart", "objectid": 1591808, "schedule": "http://bsm.sfdpw.org/PermitsTracker/reports/report.aspx?title=schedule&report=rptSchedule&params=permit=22MFF-00015&ExportPDF=1&Filename=22MFF-00015_schedule.pdf"}}, {"model": "foodtracks.trackfood", "pk": 1408, "fields": {"applicant": "Halal Cart, LLC", "locationdescription": "MARKET ST: STEUART ST to SPEAR ST (1 - 99) -- SOUTH --", "address": "1 MARKET ST", "latitude": 37.79387150715064, "longitude": -122.39486523862108, "facilitytype": "Push Cart", "objectid": 1591807, "schedule": "http://bsm.sfdpw.org/PermitsTracker/reports/report.aspx?title=schedule&report=rptSchedule&params=permit=22MFF-00015&ExportPDF=1&Filename=22MFF-00015_schedule.pdf"}}, {"model": "foodtracks.trackfood", "pk": 1409, "fields": {"applicant": "Halal Cart of San Francisco", "locationdescription": "MARKET ST: STEUART ST to SPEAR ST (1 - 99) -- SOUTH --", "address": "1 MARKET ST", "latitude": 37.79387150715064, "longitude": -122.39486523862108, "facilitytype": "Push Cart", "objectid": 1591834, "schedule": "http://bsm.sfdpw.org/PermitsTracker/reports/report.aspx?title=schedule&report=rptSchedule&params=permit=22MFF-00023&ExportPDF=1&Filename=22MFF-00023_schedule.pdf"}}, {"model": "foodtracks.trackfood", "pk": 1410, "fields": {"applicant": "Halal Cart, LLC", "locationdescription": "MARKET ST: FREMONT ST \\ FRONT ST to 01ST ST \\ BUSH ST (401 - 499) -- SOUTH --", "address": "455 MARKET ST", "latitude": 37.79094704192342, "longitude": -122.39863358940372, "facilitytype": "Push Cart", "objectid": 1591809, "schedule": "http://bsm.sfdpw.org/PermitsTracker/reports/report.aspx?title=schedule&report=rptSchedule&params=permit=22MFF-00016&ExportPDF=1&Filename=22MFF-00016_schedule.pdf"}}, {"model": "foodtracks.trackfood", "pk": 1411, "fields": {"applicant": "Truly Food & More", "locationdescription": "GENEVA AVE: PRAGUE ST to LINDA VISTA STPS (1500 - 1598) -- SOUTH --", "address": "1500 GENEVA AVE", "latitude": 37.712302604744416, "longitude": -122.43164419037294, "facilitytype": "Truck", "objectid": 1587393, "schedule": "http://bsm.sfdpw.org/PermitsTracker/reports/report.aspx?title=schedule&report=rptSchedule&params=permit=21MFF-00151&ExportPDF=1&Filename=21MFF-00151_schedule.pdf"}}, {"model": "foodtracks.trackfood", "pk": 1412, "fields": {"applicant": "Brazuca Grill", "locationdescription": "10TH ST: SHERIDAN ST to HARRISON ST (350 - 399)", "address": "380 10TH ST", "latitude": 37.77165385136786, "longitude": -122.41180906852377, "facilitytype": "Truck", "objectid": 1587558, "schedule": "http://bsm.sfdpw.org/PermitsTracker/reports/report.aspx?title=schedule&report=rptSchedule&params=permit=21MFF-00154&ExportPDF=1&Filename=21MFF-00154_schedule.pdf"}}, {"model": "foodtracks.trackfood", "pk": 1413, "fields": {"applicant": "Street Meet", "locationdescription": "VALENCIA ST: 14TH ST to ROSA PARKS LN (300 - 337)", "address": "306 VALENCIA ST", "latitude": 37.76785526935426, "longitude": -122.42248440416164, "facilitytype": "Truck", "objectid": 1621287, "schedule": "http://bsm.sfdpw.org/PermitsTracker/reports/report.aspx?title=schedule&report=rptSchedule&params=permit=22MFF-00033&ExportPDF=1&Filename=22MFF-00033_schedule.pdf"}}, {"model": "foodtracks.trackfood", "pk": 1414, "fields": {"applicant": "Off the Grid Services, LLC", "locationdescription": "MARY ST: MINNA ST to NATOMA ST (24 - 69)", "address": "44 MARY ST", "latitude": 37.781372367648615, "longitude": -122.40661921344578, "facilitytype": "Truck", "objectid": 1611672, "schedule": "http://bsm.sfdpw.org/PermitsTracker/reports/report.aspx?title=schedule&report=rptSchedule&params=permit=22MFF-00029&ExportPDF=1&Filename=22MFF-00029_schedule.pdf"}}, {"model": "foodtracks.trackfood", "pk": 1415, "fields": {"applicant": "Cochinita", "locationdescription": "02ND ST: BRYANT ST to TABER PL (500 - 518)", "address": "501 02ND ST", "latitude": 37.7831711043434, "longitude": -122.39290104947858, "facilitytype": "Truck", "objectid": 1591824, "schedule": "http://bsm.sfdpw.org/PermitsTracker/reports/report.aspx?title=schedule&report=rptSchedule&params=permit=22MFF-00021&ExportPDF=1&Filename=22MFF-00021_schedule.pdf"}}, {"model": "foodtracks.trackfood", "pk": 1416, "fields": {"applicant": "Cochinita", "locationdescription": "TOWNSEND ST: LUSK ST to 04TH ST (252 - 299)", "address": "290 TOWNSEND ST", "latitude": 37.77775521656862, "longitude": -122.394807823179, "facilitytype": "Truck", "objectid": 1591823, "schedule": "http://bsm.sfdpw.org/PermitsTracker/reports/report.aspx?title=schedule&report=rptSchedule&params=permit=22MFF-00021&ExportPDF=1&Filename=22MFF-00021_schedule.pdf"}}, {"model": "foodtracks.trackfood", "pk": 1417, "fields": {"applicant": "Cochinita", "locationdescription": "24TH ST: UTAH ST to POTRERO AVE (2600 - 2699)", "address": "2601 24TH ST", "latitude": 37.752822368121485, "longitude": -122.4055319192157, "facilitytype": "Truck", "objectid": 1591822, "schedule": "http://bsm.sfdpw.org/PermitsTracker/reports/report.aspx?title=schedule&report=rptSchedule&params=permit=22MFF-00020&ExportPDF=1&Filename=22MFF-00020_schedule.pdf"}}, {"model": "foodtracks.trackfood", "pk": 1418, "fields": {"applicant": "Cochinita", "locationdescription": "BEALE ST: BRYANT ST \\ DELANCEY ST to END: 500-501 BLOCK (500 - 599)", "address": "501 BEALE ST", "latitude": 37.78623677446536, "longitude": -122.38906620560476, "facilitytype": "Truck", "objectid": 1591825, "schedule": "http://bsm.sfdpw.org/PermitsTracker/reports/report.aspx?title=schedule&report=rptSchedule&params=permit=22MFF-00021&ExportPDF=1&Filename=22MFF-00021_schedule.pdf"}}, {"model": "foodtracks.trackfood", "pk": 1419, "fields": {"applicant": "Cochinita", "locationdescription": "BRYANT ST: 04TH ST \\ I-80 E OFF RAMP to 05TH ST \\ I-80 E ON RAMP (600 - 699)", "address": "617 BRYANT ST", "latitude": 37.779051111573146, "longitude": -122.39830388133372, "facilitytype": "Truck", "objectid": 1591827, "schedule": "http://bsm.sfdpw.org/PermitsTracker/reports/report.aspx?title=schedule&report=rptSchedule&params=permit=22MFF-00021&ExportPDF=1&Filename=22MFF-00021_schedule.pdf"}}, {"model": "foodtracks.trackfood", "pk": 1420, "fields": {"applicant": "Cochinita", "locationdescription": "DIVISADERO ST: MCALLISTER ST to GOLDEN GATE AVE (901 - 999) -- WEST --", "address": "999 DIVISADERO ST", "latitude": 37.77838430096904, "longitude": -122.43878238856672, "facilitytype": "Truck", "objectid": 1591829, "schedule": "http://bsm.sfdpw.org/PermitsTracker/reports/report.aspx?title=schedule&report=rptSchedule&params=permit=22MFF-00021&ExportPDF=1&Filename=22MFF-00021_schedule.pdf"}}, {"model": "foodtracks.trackfood", "pk": 1421, "fields": {"applicant": "Tacos Rodriguez", "locationdescription": "EVANS AVE: KEITH ST to MENDELL ST (1201 - 1399) -- SOUTH --", "address": "1275 EVANS AVE", "latitude": 37.73911142974502, "longitude": -122.38246497113636, "facilitytype": "Truck", "objectid": 1591840, "schedule": "http://bsm.sfdpw.org/PermitsTracker/reports/report.aspx?title=schedule&report=rptSchedule&params=permit=22MFF-00024&ExportPDF=1&Filename=22MFF-00024_schedule.pdf"}}, {"model": "foodtracks.trackfood", "pk": 1422, "fields": {"applicant": "Tacos Rodriguez", "locationdescription": "OAKDALE AVE: INDUSTRIAL ST \\ SELBY ST to TOLAND ST (2100 - 2199)", "address": "2198 OAKDALE AVE", "latitude": 37.74099473500238, "longitude": -122.4011723353864, "facilitytype": "Truck", "objectid": 1591842, "schedule": "http://bsm.sfdpw.org/PermitsTracker/reports/report.aspx?title=schedule&report=rptSchedule&params=permit=22MFF-00024&ExportPDF=1&Filename=22MFF-00024_schedule.pdf"}}, {"model": "foodtracks.trackfood", "pk": 1423, "fields": {"applicant": "Tacos Rodriguez", "locationdescription": "MENDELL ST: GALVEZ AVE to HUDSON AVE (600 - 699)", "address": "600 MENDELL ST", "latitude": 37.73967879180792, "longitude": -122.38649338455488, "facilitytype": "Truck", "objectid": 1591841, "schedule": "http://bsm.sfdpw.org/PermitsTracker/reports/report.aspx?title=schedule&report=rptSchedule&params=permit=22MFF-00024&ExportPDF=1&Filename=22MFF-00024_schedule.pdf"}}, {"model": "foodtracks.trackfood", "pk": 1424, "fields": {"applicant": "Tacos El Flaco", "locationdescription": "03RD ST: 25TH ST to 26TH ST (2901 - 2999) -- EAST --", "address": "2901 03RD ST", "latitude": 37.75240499247832, "longitude": -122.38700019629786, "facilitytype": "Truck", "objectid": 1617853, "schedule": "http://bsm.sfdpw.org/PermitsTracker/reports/report.aspx?title=schedule&report=rptSchedule&params=permit=22MFF-00032&ExportPDF=1&Filename=22MFF-00032_schedule.pdf"}}, {"model": "foodtracks.trackfood", "pk": 1425, "fields": {"applicant": "Roadside Rotisserie Corporation / Country Grill", "locationdescription": "CALIFORNIA ST: BATTERY ST to SANSOME ST (300 - 399)", "address": "300 CALIFORNIA ST", "latitude": 37.79344652781607, "longitude": -122.40034367559196, "facilitytype": "Truck", "objectid": 1622210, "schedule": "http://bsm.sfdpw.org/PermitsTracker/reports/report.aspx?title=schedule&report=rptSchedule&params=permit=21MFF-00142&ExportPDF=1&Filename=21MFF-00142_schedule.pdf"}}, {"model": "foodtracks.trackfood", "pk": 1426, "fields": {"applicant": "Tacos Rodriguez", "locationdescription": "SANSOME ST: SUTTER ST to BUSH ST (1 - 99)", "address": "1 SANSOME ST", "latitude": 37.790485146128, "longitude": -122.40094044068952, "facilitytype": "Truck", "objectid": 1591839, "schedule": "http://bsm.sfdpw.org/PermitsTracker/reports/report.aspx?title=schedule&report=rptSchedule&params=permit=22MFF-00024&ExportPDF=1&Filename=22MFF-00024_schedule.pdf"}}, {"model": "foodtracks.trackfood", "pk": 1427, "fields": {"applicant": "Cochinita", "locationdescription": "07TH AVE: LINCOLN WAY to HUGO ST (1200 - 1246)", "address": "1219 07TH AVE", "latitude": 37.76549698761915, "longitude": -122.46459761957114, "facilitytype": "Truck", "objectid": 1591828, "schedule": "http://bsm.sfdpw.org/PermitsTracker/reports/report.aspx?title=schedule&report=rptSchedule&params=permit=22MFF-00021&ExportPDF=1&Filename=22MFF-00021_schedule.pdf"}}, {"model": "foodtracks.trackfood", "pk": 1428, "fields": {"applicant": "Cochinita", "locationdescription": "BRANNAN ST: ZOE ST to 04TH ST (440 - 499)", "address": "490 BRANNAN ST", "latitude": 37.778863135500174, "longitude": -122.39644435935811, "facilitytype": "Truck", "objectid": 1591826, "schedule": "http://bsm.sfdpw.org/PermitsTracker/reports/report.aspx?title=schedule&report=rptSchedule&params=permit=22MFF-00021&ExportPDF=1&Filename=22MFF-00021_schedule.pdf"}}, {"model": "foodtracks.trackfood", "pk": 1429, "fields": {"applicant": "Quan Catering", "locationdescription": "BURKE AVE: START: 1500-1599 BLOCK to 03RD ST (1500 - 1599)", "address": "1575 BURKE AVE", "latitude": 37.74417844737573, "longitude": -122.38671592975922, "facilitytype": "Truck", "objectid": 1336741, "schedule": "http://bsm.sfdpw.org/PermitsTracker/reports/report.aspx?title=schedule&report=rptSchedule&params=permit=19MFF-00055&ExportPDF=1&Filename=19MFF-00055_schedule.pdf"}}, {"model": "foodtracks.trackfood", "pk": 1430, "fields": {"applicant": "Reecees Soulicious", "locationdescription": "BAY SHORE BLVD: BAY SHORE BLVD to OAKDALE AVE (185 - 299) -- EAST --", "address": "201 BAY SHORE BLVD", "latitude": 37.74530890865633, "longitude": -122.40342005999852, "facilitytype": "Truck", "objectid": 848184, "schedule": "http://bsm.sfdpw.org/PermitsTracker/reports/report.aspx?title=schedule&report=rptSchedule&params=permit=16MFF-0139&ExportPDF=1&Filename=16MFF-0139_schedule.pdf"}}, {"model": "foodtracks.trackfood", "pk": 1431, "fields": {"applicant": "Mini Mobile Food Catering", "locationdescription": "FREMONT ST: TRANSBAY HUMP to NATOMA ST (116 - 169)", "address": "147 FREMONT ST", "latitude": 37.79018557063344, "longitude": -122.39547172580944, "facilitytype": "Truck", "objectid": 1332942, "schedule": "http://bsm.sfdpw.org/PermitsTracker/reports/report.aspx?title=schedule&report=rptSchedule&params=permit=19MFF-00041&ExportPDF=1&Filename=19MFF-00041_schedule.pdf"}}, {"model": "foodtracks.trackfood", "pk": 1432, "fields": {"applicant": "Got Snacks", "locationdescription": "03RD ST: TERRY A FRANCOIS BLVD to CHANNEL ST (1000 - 1099)", "address": "1020 03RD ST", "latitude": 37.77551013804947, "longitude": -122.39099930600248, "facilitytype": "Push Cart", "objectid": 1343831, "schedule": "http://bsm.sfdpw.org/PermitsTracker/reports/report.aspx?title=schedule&report=rptSchedule&params=permit=19MFF-00112&ExportPDF=1&Filename=19MFF-00112_schedule.pdf"}}, {"model": "foodtracks.trackfood", "pk": 1433, "fields": {"applicant": "The Chef Station", "locationdescription": "10TH ST: FELL ST \\ MARKET ST \\ POLK ST to STEVENSON ST (1 - 18)", "address": "8 10TH ST", "latitude": 37.7758255197583, "longitude": -122.41724962664344, "facilitytype": "Truck", "objectid": 1047831, "schedule": "http://bsm.sfdpw.org/PermitsTracker/reports/report.aspx?title=schedule&report=rptSchedule&params=permit=17MFF-0203&ExportPDF=1&Filename=17MFF-0203_schedule.pdf"}}, {"model": "foodtracks.trackfood", "pk": 1434, "fields": {"applicant": "MOMO INNOVATION LLC", "locationdescription": "CALIFORNIA ST: BATTERY ST to SANSOME ST (300 - 399)", "address": "351 CALIFORNIA ST", "latitude": 37.792870749741496, "longitude": -122.4007474940767, "facilitytype": "Truck", "objectid": 1606346, "schedule": "http://bsm.sfdpw.org/PermitsTracker/reports/report.aspx?title=schedule&report=rptSchedule&params=permit=21MFF-00082&ExportPDF=1&Filename=21MFF-00082_schedule.pdf"}}, {"model": "foodtracks.trackfood", "pk": 1435, "fields": {"applicant": "Scotch Bonnet", "locationdescription": "01ST ST: STEVENSON ST to JESSIE ST (21 - 56)", "address": "50 01ST ST", "latitude": 37.79014907372554, "longitude": -122.39865818460405, "facilitytype": "Truck", "objectid": 934516, "schedule": "http://bsm.sfdpw.org/PermitsTracker/reports/report.aspx?title=schedule&report=rptSchedule&params=permit=17MFF-0094&ExportPDF=1&Filename=17MFF-0094_schedule.pdf"}}, {"model": "foodtracks.trackfood", "pk": 1436, "fields": {"applicant": "Liang Bai Ping", "locationdescription": "PALOU AVE: PALOU AVE to GRIFFITH ST (904 - 999)", "address": "931 PALOU AVE", "latitude": 37.72673391124156, "longitude": -122.37897200523552, "facilitytype": "Truck", "objectid": 1337425, "schedule": "http://bsm.sfdpw.org/PermitsTracker/reports/report.aspx?title=schedule&report=rptSchedule&params=permit=19MFF-00079&ExportPDF=1&Filename=19MFF-00079_schedule.pdf"}}, {"model": "foodtracks.trackfood", "pk": 1437, "fields": {"applicant": "Breakfast Embed", "locationdescription": "01ST ST: TEHAMA ST to CLEMENTINA ST (232 - 274)", "address": "234 01ST ST", "latitude": 37.7877332717998, "longitude": -122.39566345752182, "facilitytype": "Truck", "objectid": 1552372, "schedule": "http://bsm.sfdpw.org/PermitsTracker/reports/report.aspx?title=schedule&report=rptSchedule&params=permit=21MFF-00069&ExportPDF=1&Filename=21MFF-00069_schedule.pdf"}}, {"model": "foodtracks.trackfood", "pk": 1438, "fields": {"applicant": "Breakfast Embed", "locationdescription": "MISSION ROCK ST: 04TH ST intersection", "address": "1200 04TH ST", "latitude": 37.77248360682256, "longitude": -122.39181160681602, "facilitytype": "Truck", "objectid": 1552373, "schedule": "http://bsm.sfdpw.org/PermitsTracker/reports/report.aspx?title=schedule&report=rptSchedule&params=permit=21MFF-00069&ExportPDF=1&Filename=21MFF-00069_schedule.pdf"}}, {"model": "foodtracks.trackfood", "pk": 1439, "fields": {"applicant": "Buenafe", "locationdescription": "MISSISSIPPI ST: 07TH ST \\ 16TH ST to 17TH ST (1 - 99)", "address": "901 16TH ST", "latitude": 37.76612469442701, "longitude": -122.39547306227009, "facilitytype": "Truck", "objectid": 1575168, "schedule": "http://bsm.sfdpw.org/PermitsTracker/reports/report.aspx?title=schedule&report=rptSchedule&params=permit=21MFF-00113&ExportPDF=1&Filename=21MFF-00113_schedule.pdf"}}, {"model": "foodtracks.trackfood", "pk": 1440, "fields": {"applicant": "San Francisco Carts & Concessions, Inc. DBA Stanley's Steamers Hot Dogs", "locationdescription": "POST ST: STOCKTON ST to POWELL ST (300 - 399)", "address": "345 STOCKTON ST", "latitude": 37.78891014957045, "longitude": -122.40719603412224, "facilitytype": "Push Cart", "objectid": 1571659, "schedule": "http://bsm.sfdpw.org/PermitsTracker/reports/report.aspx?title=schedule&report=rptSchedule&params=permit=21MFF-00110&ExportPDF=1&Filename=21MFF-00110_schedule.pdf"}}, {"model": "foodtracks.trackfood", "pk": 1441, "fields": {"applicant": "Papalote Inc.", "locationdescription": "01ST ST: HOWARD ST to TEHAMA ST (200 - 231)", "address": "505 HOWARD ST", "latitude": 37.78798864899528, "longitude": -122.39610066847152, "facilitytype": "Truck", "objectid": 1575155, "schedule": "http://bsm.sfdpw.org/PermitsTracker/reports/report.aspx?title=schedule&report=rptSchedule&params=permit=21MFF-00112&ExportPDF=1&Filename=21MFF-00112_schedule.pdf"}}, {"model": "foodtracks.trackfood", "pk": 1442, "fields": {"applicant": "Buenafe", "locationdescription": "EVANS AVE: PHELPS ST to QUINT ST (1600 - 1699)", "address": "750 PHELPS ST", "latitude": 37.73944545286909, "longitude": -122.39301498669842, "facilitytype": "Truck", "objectid": 1575171, "schedule": "http://bsm.sfdpw.org/PermitsTracker/reports/report.aspx?title=schedule&report=rptSchedule&params=permit=21MFF-00114&ExportPDF=1&Filename=21MFF-00114_schedule.pdf"}}, {"model": "foodtracks.trackfood", "pk": 1443, "fields": {"applicant": "San Francisco Carts & Concessions, Inc. DBA Stanley's Steamers Hot Dogs", "locationdescription": "GEARY ST: STOCKTON ST to POWELL ST (200 - 299)", "address": "233 GEARY ST", "latitude": 37.78724260259671, "longitude": -122.40687973821338, "facilitytype": "Push Cart", "objectid": 1571657, "schedule": "http://bsm.sfdpw.org/PermitsTracker/reports/report.aspx?title=schedule&report=rptSchedule&params=permit=21MFF-00108&ExportPDF=1&Filename=21MFF-00108_schedule.pdf"}}, {"model": "foodtracks.trackfood", "pk": 1444, "fields": {"applicant": "Bay Area Mobile Catering, Inc. dba. Taqueria Angelica's", "locationdescription": "MISSION ST: 10TH ST to 11TH ST (1400 - 1499)", "address": "1455 MARKET ST", "latitude": 37.77522830783405, "longitude": -122.41746613186956, "facilitytype": "Truck", "objectid": 1575218, "schedule": "http://bsm.sfdpw.org/PermitsTracker/reports/report.aspx?title=schedule&report=rptSchedule&params=permit=21MFF-00117&ExportPDF=1&Filename=21MFF-00117_schedule.pdf"}}, {"model": "foodtracks.trackfood", "pk": 1445, "fields": {"applicant": "Buenafe", "locationdescription": "RANKIN ST: DAVIDSON AVE to EVANS AVE (200 - 299)", "address": "220 RANKIN ST", "latitude": 37.74574924062031, "longitude": -122.3924814876784, "facilitytype": "Truck", "objectid": 1575170, "schedule": "http://bsm.sfdpw.org/PermitsTracker/reports/report.aspx?title=schedule&report=rptSchedule&params=permit=21MFF-00114&ExportPDF=1&Filename=21MFF-00114_schedule.pdf"}}, {"model": "foodtracks.trackfood", "pk": 1446, "fields": {"applicant": "Natan's Catering", "locationdescription": "KANSAS ST: 16TH ST to 17TH ST (300 - 399)", "address": "350 KANSAS ST", "latitude": 37.76537066931712, "longitude": -122.40390784821224, "facilitytype": "Truck", "objectid": 1576237, "schedule": "http://bsm.sfdpw.org/PermitsTracker/reports/report.aspx?title=schedule&report=rptSchedule&params=permit=21MFF-00118&ExportPDF=1&Filename=21MFF-00118_schedule.pdf"}}, {"model": "foodtracks.trackfood", "pk": 1447, "fields": {"applicant": "Fillmore Square", "locationdescription": "FILLMORE ST: TURK ST to EDDY ST (1200 - 1299)", "address": "1290 FILLMORE ST", "latitude": 37.78127594842663, "longitude": -122.43184035948616, "facilitytype": "Truck", "objectid": 1568972, "schedule": "http://bsm.sfdpw.org/PermitsTracker/reports/report.aspx?title=schedule&report=rptSchedule&params=permit=21MFF-00101&ExportPDF=1&Filename=21MFF-00101_schedule.pdf"}}, {"model": "foodtracks.trackfood", "pk": 1448, "fields": {"applicant": "Think is Good Inc.", "locationdescription": "MISSION ST: SHAW ALY to ANTHONY ST (543 - 586)", "address": "560 MISSION ST", "latitude": 37.78886471534304, "longitude": -122.39935935136296, "facilitytype": "Truck", "objectid": 1568999, "schedule": "http://bsm.sfdpw.org/PermitsTracker/reports/report.aspx?title=schedule&report=rptSchedule&params=permit=21MFF-00104&ExportPDF=1&Filename=21MFF-00104_schedule.pdf"}}, {"model": "foodtracks.trackfood", "pk": 1449, "fields": {"applicant": "CARDONA'S FOOD TRUCK", "locationdescription": "MISSION ST: 14TH ST to 15TH ST (1800 - 1899)", "address": "1800 MISSION ST", "latitude": 37.76781718141415, "longitude": -122.42057533514163, "facilitytype": "Truck", "objectid": 1568965, "schedule": "http://bsm.sfdpw.org/PermitsTracker/reports/report.aspx?title=schedule&report=rptSchedule&params=permit=21MFF-00100&ExportPDF=1&Filename=21MFF-00100_schedule.pdf"}}, {"model": "foodtracks.trackfood", "pk": 1450, "fields": {"applicant": "Fillmore Square", "locationdescription": "EDDY ST: WEBSTER ST to FILLMORE ST (1400 - 1499)", "address": "1290 FILLMORE ST", "latitude": 37.78127594842663, "longitude": -122.43184035948616, "facilitytype": "Truck", "objectid": 1568971, "schedule": "http://bsm.sfdpw.org/PermitsTracker/reports/report.aspx?title=schedule&report=rptSchedule&params=permit=21MFF-00101&ExportPDF=1&Filename=21MFF-00101_schedule.pdf"}}, {"model": "foodtracks.trackfood", "pk": 1451, "fields": {"applicant": "Senor Sisig", "locationdescription": "FRONT ST: BROADWAY to VALLEJO ST (800 - 899)", "address": "90 BROADWAY", "latitude": 37.799260113502285, "longitude": -122.39961794865545, "facilitytype": "Truck", "objectid": 1568959, "schedule": "http://bsm.sfdpw.org/PermitsTracker/reports/report.aspx?title=schedule&report=rptSchedule&params=permit=21MFF-00098&ExportPDF=1&Filename=21MFF-00098_schedule.pdf"}}, {"model": "foodtracks.trackfood", "pk": 1452, "fields": {"applicant": "Senor Sisig", "locationdescription": "BROADWAY: DAVIS ST to FRONT ST (50 - 99)", "address": "90 BROADWAY", "latitude": 37.799260113502285, "longitude": -122.39961794865545, "facilitytype": "Truck", "objectid": 1568960, "schedule": "http://bsm.sfdpw.org/PermitsTracker/reports/report.aspx?title=schedule&report=rptSchedule&params=permit=21MFF-00099&ExportPDF=1&Filename=21MFF-00099_schedule.pdf"}}, {"model": "foodtracks.trackfood", "pk": 1453, "fields": {"applicant": "DO UC US Mobile Catering", "locationdescription": "04TH ST: MISSION BAY BLVD to NELSON RISING LN (1400 - 1499)", "address": "1420 04TH ST", "latitude": 37.76989774889607, "longitude": -122.3910982796345, "facilitytype": "Truck", "objectid": 1571648, "schedule": "http://bsm.sfdpw.org/PermitsTracker/reports/report.aspx?title=schedule&report=rptSchedule&params=permit=21MFF-00107&ExportPDF=1&Filename=21MFF-00107_schedule.pdf"}}, {"model": "foodtracks.trackfood", "pk": 1454, "fields": {"applicant": "DO UC US Mobile Catering", "locationdescription": "PARNASSUS AVE: HILLWAY AVE to 03RD AVE (400 - 599)", "address": "400 PARNASSUS AVE", "latitude": 37.763864032383225, "longitude": -122.4583917498439, "facilitytype": "Truck", "objectid": 1571646, "schedule": "http://bsm.sfdpw.org/PermitsTracker/reports/report.aspx?title=schedule&report=rptSchedule&params=permit=21MFF-00107&ExportPDF=1&Filename=21MFF-00107_schedule.pdf"}}, {"model": "foodtracks.trackfood", "pk": 1455, "fields": {"applicant": "Bay Area Mobile Catering, Inc. dba. Taqueria Angelica's", "locationdescription": "25TH ST: ALABAMA ST to HARRISON ST (3042 - 3099)", "address": "3065 25TH ST", "latitude": 37.7509316476402, "longitude": -122.4114199662057, "facilitytype": "Truck", "objectid": 1575216, "schedule": "http://bsm.sfdpw.org/PermitsTracker/reports/report.aspx?title=schedule&report=rptSchedule&params=permit=21MFF-00117&ExportPDF=1&Filename=21MFF-00117_schedule.pdf"}}, {"model": "foodtracks.trackfood", "pk": 1456, "fields": {"applicant": "Fillmore Square", "locationdescription": "WEBSTER ST: EDDY ST to ELLIS ST (1201 - 1299) -- WEST --", "address": "1223 WEBSTER ST", "latitude": 37.78239151018784, "longitude": -122.43111456170246, "facilitytype": "Truck", "objectid": 1568970, "schedule": "http://bsm.sfdpw.org/PermitsTracker/reports/report.aspx?title=schedule&report=rptSchedule&params=permit=21MFF-00101&ExportPDF=1&Filename=21MFF-00101_schedule.pdf"}}, {"model": "foodtracks.trackfood", "pk": 1457, "fields": {"applicant": "Senor Sisig", "locationdescription": "ELLIS ST: POWELL ST to CYRIL MAGNIN ST (100 - 148)", "address": "120 ELLIS ST", "latitude": 37.78561008636915, "longitude": -122.40815476434544, "facilitytype": "Truck", "objectid": 1568948, "schedule": "http://bsm.sfdpw.org/PermitsTracker/reports/report.aspx?title=schedule&report=rptSchedule&params=permit=21MFF-00096&ExportPDF=1&Filename=21MFF-00096_schedule.pdf"}}, {"model": "foodtracks.trackfood", "pk": 1458, "fields": {"applicant": "La Jefa", "locationdescription": "BAY SHORE BLVD: WATERLOO ST to MARENGO ST (501 - 559) -- EAST --", "address": "531 BAY SHORE BLVD", "latitude": 37.738726803987134, "longitude": -122.40673602990492, "facilitytype": "Truck", "objectid": 1568992, "schedule": "http://bsm.sfdpw.org/PermitsTracker/reports/report.aspx?title=schedule&report=rptSchedule&params=permit=21MFF-00103&ExportPDF=1&Filename=21MFF-00103_schedule.pdf"}}, {"model": "foodtracks.trackfood", "pk": 1459, "fields": {"applicant": "Senor Sisig", "locationdescription": "02ND ST: MISSION ST to MINNA ST (100 - 130)", "address": "120 02ND ST", "latitude": 37.7875140607381, "longitude": -122.39956633142909, "facilitytype": "Truck", "objectid": 1568947, "schedule": "http://bsm.sfdpw.org/PermitsTracker/reports/report.aspx?title=schedule&report=rptSchedule&params=permit=21MFF-00096&ExportPDF=1&Filename=21MFF-00096_schedule.pdf"}}, {"model": "foodtracks.trackfood", "pk": 1460, "fields": {"applicant": "Think is Good Inc.", "locationdescription": "CALIFORNIA ST: SANSOME ST to LEIDESDORFF ST (400 - 448)", "address": "430 CALIFORNIA ST", "latitude": 37.793262206923096, "longitude": -122.4017890913628, "facilitytype": "Truck", "objectid": 1568998, "schedule": "http://bsm.sfdpw.org/PermitsTracker/reports/report.aspx?title=schedule&report=rptSchedule&params=permit=21MFF-00104&ExportPDF=1&Filename=21MFF-00104_schedule.pdf"}}, {"model": "foodtracks.trackfood", "pk": 1461, "fields": {"applicant": "CARDONA'S FOOD TRUCK", "locationdescription": "MISSION ST: 14TH ST to 15TH ST (1800 - 1899)", "address": "1888 MISSION ST", "latitude": 37.76689760255916, "longitude": -122.42032247306808, "facilitytype": "Truck", "objectid": 1568966, "schedule": "http://bsm.sfdpw.org/PermitsTracker/reports/report.aspx?title=schedule&report=rptSchedule&params=permit=21MFF-00100&ExportPDF=1&Filename=21MFF-00100_schedule.pdf"}}, {"model": "foodtracks.trackfood", "pk": 1462, "fields": {"applicant": "Fillmore Square", "locationdescription": "FILLMORE ST: TURK ST to EDDY ST (1200 - 1299)", "address": "1245 FILLMORE ST", "latitude": 37.78085752242169, "longitude": -122.43305677044792, "facilitytype": "Truck", "objectid": 1568973, "schedule": "http://bsm.sfdpw.org/PermitsTracker/reports/report.aspx?title=schedule&report=rptSchedule&params=permit=21MFF-00101&ExportPDF=1&Filename=21MFF-00101_schedule.pdf"}}, {"model": "foodtracks.trackfood", "pk": 1463, "fields": {"applicant": "Think is Good Inc.", "locationdescription": "PINE ST: FRONT ST to BATTERY ST (100 - 199)", "address": "100 PINE ST", "latitude": 37.79264071673365, "longitude": -122.39897033211076, "facilitytype": "Truck", "objectid": 1568997, "schedule": "http://bsm.sfdpw.org/PermitsTracker/reports/report.aspx?title=schedule&report=rptSchedule&params=permit=21MFF-00104&ExportPDF=1&Filename=21MFF-00104_schedule.pdf"}}, {"model": "foodtracks.trackfood", "pk": 1464, "fields": {"applicant": "Senor Sisig", "locationdescription": "CALIFORNIA ST: DAVIS ST to FRONT ST (100 - 199)", "address": "101 CALIFORNIA ST", "latitude": 37.79294895283466, "longitude": -122.39809861316652, "facilitytype": "Truck", "objectid": 1568883, "schedule": "http://bsm.sfdpw.org/PermitsTracker/reports/report.aspx?title=schedule&report=rptSchedule&params=permit=21MFF-00095&ExportPDF=1&Filename=21MFF-00095_schedule.pdf"}}, {"model": "foodtracks.trackfood", "pk": 1465, "fields": {"applicant": "California Kahve", "locationdescription": "LA PLAYA: LINCOLN WAY \\ MARTIN LUTHER KING JR DR to IRVING ST (1200 - 1299)", "address": "1234 GREAT HWY", "latitude": 37.76360804110198, "longitude": -122.50959579624612, "facilitytype": "Truck", "objectid": 1568975, "schedule": "http://bsm.sfdpw.org/PermitsTracker/reports/report.aspx?title=schedule&report=rptSchedule&params=permit=21MFF-00102&ExportPDF=1&Filename=21MFF-00102_schedule.pdf"}}, {"model": "foodtracks.trackfood", "pk": 1466, "fields": {"applicant": "Senor Sisig", "locationdescription": "MISSION ST: 05TH ST to MINT ST (900 - 930)", "address": "901 MISSION ST", "latitude": 37.78215364099855, "longitude": -122.40660110683912, "facilitytype": "Truck", "objectid": 1568884, "schedule": "http://bsm.sfdpw.org/PermitsTracker/reports/report.aspx?title=schedule&report=rptSchedule&params=permit=21MFF-00095&ExportPDF=1&Filename=21MFF-00095_schedule.pdf"}}, {"model": "foodtracks.trackfood", "pk": 1467, "fields": {"applicant": "Senor Sisig", "locationdescription": "10TH ST: FELL ST \\ MARKET ST \\ POLK ST to STEVENSON ST (1 - 18)", "address": "8 10TH ST", "latitude": 37.7758255197583, "longitude": -122.41724962664344, "facilitytype": "Truck", "objectid": 1568961, "schedule": "http://bsm.sfdpw.org/PermitsTracker/reports/report.aspx?title=schedule&report=rptSchedule&params=permit=21MFF-00099&ExportPDF=1&Filename=21MFF-00099_schedule.pdf"}}, {"model": "foodtracks.trackfood", "pk": 1468, "fields": {"applicant": "Datam SF LLC dba Anzu To You", "locationdescription": "TAYLOR ST: BAY ST to NORTH POINT ST (2500 - 2599)", "address": "2535 TAYLOR ST", "latitude": 37.805885350100986, "longitude": -122.41594524663743, "facilitytype": "Truck", "objectid": 1569152, "schedule": "http://bsm.sfdpw.org/PermitsTracker/reports/report.aspx?title=schedule&report=rptSchedule&params=permit=21MFF-00106&ExportPDF=1&Filename=21MFF-00106_schedule.pdf"}}, {"model": "foodtracks.trackfood", "pk": 1469, "fields": {"applicant": "Casita Vegana", "locationdescription": "JOHN MUIR DR: LAKE MERCED BLVD to SKYLINE BLVD (200 - 699)", "address": "Assessors Block 7283/Lot004", "latitude": 37.72188970870838, "longitude": -122.4925212449949, "facilitytype": "Truck", "objectid": 1569145, "schedule": "http://bsm.sfdpw.org/PermitsTracker/reports/report.aspx?title=schedule&report=rptSchedule&params=permit=21MFF-00105&ExportPDF=1&Filename=21MFF-00105_schedule.pdf"}}, {"model": "foodtracks.trackfood", "pk": 1470, "fields": {"applicant": "San Francisco Carts & Concessions, Inc. DBA Stanley's Steamers Hot Dogs", "locationdescription": "GEARY ST: STOCKTON ST to POWELL ST (200 - 299)", "address": "251 GEARY ST", "latitude": 37.78717629174164, "longitude": -122.4073980759582, "facilitytype": "Push Cart", "objectid": 1571658, "schedule": "http://bsm.sfdpw.org/PermitsTracker/reports/report.aspx?title=schedule&report=rptSchedule&params=permit=21MFF-00109&ExportPDF=1&Filename=21MFF-00109_schedule.pdf"}}, {"model": "foodtracks.trackfood", "pk": 1471, "fields": {"applicant": "DO UC US Mobile Catering", "locationdescription": "03RD ST: MISSION BAY BLVD to WARRIORS WAY (1401 - 1599) -- EAST --", "address": "1501 03RD ST", "latitude": 37.77089223103183, "longitude": -122.3891692314827, "facilitytype": "Truck", "objectid": 1571647, "schedule": "http://bsm.sfdpw.org/PermitsTracker/reports/report.aspx?title=schedule&report=rptSchedule&params=permit=21MFF-00107&ExportPDF=1&Filename=21MFF-00107_schedule.pdf"}}, {"model": "foodtracks.trackfood", "pk": 1472, "fields": {"applicant": "Bay Area Mobile Catering, Inc. dba. Taqueria Angelica's", "locationdescription": "FOLSOM ST: 11TH ST to NORFOLK ST (1500 - 1548)", "address": "1501 FOLSOM ST", "latitude": 37.771586702670334, "longitude": -122.41400704302406, "facilitytype": "Truck", "objectid": 1575217, "schedule": "http://bsm.sfdpw.org/PermitsTracker/reports/report.aspx?title=schedule&report=rptSchedule&params=permit=21MFF-00117&ExportPDF=1&Filename=21MFF-00117_schedule.pdf"}}, {"model": "foodtracks.trackfood", "pk": 1473, "fields": {"applicant": "Natan's Catering", "locationdescription": "ALEMANY BLVD: FOLSOM ST to ELLSWORTH ST \\ I-280 S OFF RAMP \\ I-280 S ON RAMP (400 - 498) -- NORTH --", "address": "400 ALEMANY BLVD", "latitude": 37.73314239514255, "longitude": -122.41456863241858, "facilitytype": "Truck", "objectid": 1576224, "schedule": "http://bsm.sfdpw.org/PermitsTracker/reports/report.aspx?title=schedule&report=rptSchedule&params=permit=21MFF-00118&ExportPDF=1&Filename=21MFF-00118_schedule.pdf"}}, {"model": "foodtracks.trackfood", "pk": 1474, "fields": {"applicant": "Bay Area Mobile Catering, Inc. dba. Taqueria Angelica's", "locationdescription": "CESAR CHAVEZ ST: INDIANA ST to IOWA ST (1300 - 1399)", "address": "1301 CESAR CHAVEZ ST", "latitude": 37.74925585952909, "longitude": -122.3909753795768, "facilitytype": "Truck", "objectid": 1575215, "schedule": "http://bsm.sfdpw.org/PermitsTracker/reports/report.aspx?title=schedule&report=rptSchedule&params=permit=21MFF-00116&ExportPDF=1&Filename=21MFF-00116_schedule.pdf"}}, {"model": "foodtracks.trackfood", "pk": 1475, "fields": {"applicant": "Papalote Inc.", "locationdescription": "SPEAR ST: MARKET ST to MISSION ST (1 - 99)", "address": "60 SPEAR ST", "latitude": 37.79253598843109, "longitude": -122.394593199235, "facilitytype": "Truck", "objectid": 1575156, "schedule": "http://bsm.sfdpw.org/PermitsTracker/reports/report.aspx?title=schedule&report=rptSchedule&params=permit=21MFF-00112&ExportPDF=1&Filename=21MFF-00112_schedule.pdf"}}, {"model": "foodtracks.trackfood", "pk": 1476, "fields": {"applicant": "Natan's Catering", "locationdescription": "MARIN ST: START: 800-949 BLOCK to MICHIGAN ST (800 - 899)", "address": "888 MARIN ST", "latitude": 37.74945832902701, "longitude": -122.38508133967832, "facilitytype": "Truck", "objectid": 1576239, "schedule": "http://bsm.sfdpw.org/PermitsTracker/reports/report.aspx?title=schedule&report=rptSchedule&params=permit=21MFF-00118&ExportPDF=1&Filename=21MFF-00118_schedule.pdf"}}, {"model": "foodtracks.trackfood", "pk": 1477, "fields": {"applicant": "Natan's Catering", "locationdescription": "QUINT ST: ARTHUR AVE to CUSTER AVE (1 - 199)", "address": "50 QUINT ST", "latitude": 37.74647050664712, "longitude": -122.38899080865444, "facilitytype": "Truck", "objectid": 1576216, "schedule": "http://bsm.sfdpw.org/PermitsTracker/reports/report.aspx?title=schedule&report=rptSchedule&params=permit=21MFF-00118&ExportPDF=1&Filename=21MFF-00118_schedule.pdf"}}, {"model": "foodtracks.trackfood", "pk": 1478, "fields": {"applicant": "Natan's Catering", "locationdescription": "MISSION BAY BLVD SOUTH: 03RD ST \\ MISSION BAY BLVD to 04TH ST \\ MISSION BAY BLVD (501 - 599)", "address": "Assessors Block 8732/Lot001", "latitude": 37.77070297609754, "longitude": -122.3907903555664, "facilitytype": "Truck", "objectid": 1576219, "schedule": "http://bsm.sfdpw.org/PermitsTracker/reports/report.aspx?title=schedule&report=rptSchedule&params=permit=21MFF-00118&ExportPDF=1&Filename=21MFF-00118_schedule.pdf"}}, {"model": "foodtracks.trackfood", "pk": 1479, "fields": {"applicant": "Chairman SF, LLC", "locationdescription": "02ND ST: BRANNAN ST to TOWNSEND ST (600 - 699)", "address": "625 02ND ST", "latitude": 37.78168897534514, "longitude": -122.3910618172866, "facilitytype": "Truck", "objectid": 1587521, "schedule": "http://bsm.sfdpw.org/PermitsTracker/reports/report.aspx?title=schedule&report=rptSchedule&params=permit=21MFF-00152&ExportPDF=1&Filename=21MFF-00152_schedule.pdf"}}, {"model": "foodtracks.trackfood", "pk": 1480, "fields": {"applicant": "Wu Wei LLC dba MoBowl", "locationdescription": "STEUART LN: HOWARD ST \\ STEUART ST to END: 200-249 BLOCK (1 - 99)", "address": "75 HOWARD ST", "latitude": 37.79155786415492, "longitude": -122.39167149978556, "facilitytype": "Truck", "objectid": 1535606, "schedule": "http://bsm.sfdpw.org/PermitsTracker/reports/report.aspx?title=schedule&report=rptSchedule&params=permit=21MFF-00076&ExportPDF=1&Filename=21MFF-00076_schedule.pdf"}}, {"model": "foodtracks.trackfood", "pk": 1481, "fields": {"applicant": "San Francisco's Hometown Creamery", "locationdescription": "GEARY ST: STOCKTON ST to POWELL ST (200 - 299)", "address": "281 GEARY ST", "latitude": 37.78713649108612, "longitude": -122.4077185090006, "facilitytype": "Truck", "objectid": 1576354, "schedule": "http://bsm.sfdpw.org/PermitsTracker/reports/report.aspx?title=schedule&report=rptSchedule&params=permit=21MFF-00119&ExportPDF=1&Filename=21MFF-00119_schedule.pdf"}}, {"model": "foodtracks.trackfood", "pk": 1482, "fields": {"applicant": "Brazuca Grill", "locationdescription": "MARIPOSA ST: TENNESSEE ST to 04TH ST \\ MINNESOTA ST (600 - 699)", "address": "601 MARIPOSA ST", "latitude": 37.76405208992424, "longitude": -122.39014439398792, "facilitytype": "Truck", "objectid": 1587567, "schedule": "http://bsm.sfdpw.org/PermitsTracker/reports/report.aspx?title=schedule&report=rptSchedule&params=permit=21MFF-00154&ExportPDF=1&Filename=21MFF-00154_schedule.pdf"}}, {"model": "foodtracks.trackfood", "pk": 1483, "fields": {"applicant": "Philz Coffee Truck", "locationdescription": "MONTGOMERY ST: COLUMBUS AVE \\ WASHINGTON ST to JACKSON ST (700 - 799)", "address": "735 MONTGOMERY ST", "latitude": 37.79621549659414, "longitude": -122.40375455824538, "facilitytype": "Truck", "objectid": 1589650, "schedule": "http://bsm.sfdpw.org/PermitsTracker/reports/report.aspx?title=schedule&report=rptSchedule&params=permit=22MFF-00001&ExportPDF=1&Filename=22MFF-00001_schedule.pdf"}}, {"model": "foodtracks.trackfood", "pk": 1484, "fields": {"applicant": "Plaza Garibaldy", "locationdescription": "CALIFORNIA ST: LEIDESDORFF ST to MONTGOMERY ST (449 - 499)", "address": "475 CALIFORNIA ST", "latitude": 37.792346385148, "longitude": -122.40238532279396, "facilitytype": "Truck", "objectid": 1589651, "schedule": "http://bsm.sfdpw.org/PermitsTracker/reports/report.aspx?title=schedule&report=rptSchedule&params=permit=22MFF-00002&ExportPDF=1&Filename=22MFF-00002_schedule.pdf"}}, {"model": "foodtracks.trackfood", "pk": 1485, "fields": {"applicant": "Plaza Garibaldy", "locationdescription": "MONTGOMERY ST: POST ST to SUTTER ST (1 - 99)", "address": "1 MONTGOMERY ST", "latitude": 37.78924953407508, "longitude": -122.40241859729358, "facilitytype": "Truck", "objectid": 1589653, "schedule": "http://bsm.sfdpw.org/PermitsTracker/reports/report.aspx?title=schedule&report=rptSchedule&params=permit=22MFF-00003&ExportPDF=1&Filename=22MFF-00003_schedule.pdf"}}, {"model": "foodtracks.trackfood", "pk": 1486, "fields": {"applicant": "Philz Coffee Truck", "locationdescription": "PINE ST: BATTERY ST to SANSOME ST (200 - 299)", "address": "250 PINE ST", "latitude": 37.79229559981873, "longitude": -122.40070689723306, "facilitytype": "Truck", "objectid": 1589646, "schedule": "http://bsm.sfdpw.org/PermitsTracker/reports/report.aspx?title=schedule&report=rptSchedule&params=permit=22MFF-00001&ExportPDF=1&Filename=22MFF-00001_schedule.pdf"}}, {"model": "foodtracks.trackfood", "pk": 1487, "fields": {"applicant": "Plaza Garibaldy", "locationdescription": "HOWARD ST: 01ST ST to MALDEN ALY (500 - 589)", "address": "540 HOWARD ST", "latitude": 37.78795495968584, "longitude": -122.39723654373122, "facilitytype": "Truck", "objectid": 1589652, "schedule": "http://bsm.sfdpw.org/PermitsTracker/reports/report.aspx?title=schedule&report=rptSchedule&params=permit=22MFF-00003&ExportPDF=1&Filename=22MFF-00003_schedule.pdf"}}, {"model": "foodtracks.trackfood", "pk": 1488, "fields": {"applicant": "Philz Coffee Truck", "locationdescription": "MARINA BLVD: LAGUNA ST to BEACH ST \\ BUCHANAN ST \\ LOWER FORT MASON ST (1 - 99)", "address": "15 MARINA BLVD", "latitude": 37.80457786909011, "longitude": -122.43301077434302, "facilitytype": "Truck", "objectid": 1589649, "schedule": "http://bsm.sfdpw.org/PermitsTracker/reports/report.aspx?title=schedule&report=rptSchedule&params=permit=22MFF-00001&ExportPDF=1&Filename=22MFF-00001_schedule.pdf"}}, {"model": "foodtracks.trackfood", "pk": 1489, "fields": {"applicant": "Brazuca Grill", "locationdescription": "SHIPLEY ST: 04TH ST to 05TH ST (100 - 199)", "address": "133 SHIPLEY ST", "latitude": 37.78072409776966, "longitude": -122.40123539265836, "facilitytype": "Truck", "objectid": 1587539, "schedule": "http://bsm.sfdpw.org/PermitsTracker/reports/report.aspx?title=schedule&report=rptSchedule&params=permit=21MFF-00154&ExportPDF=1&Filename=21MFF-00154_schedule.pdf"}}, {"model": "foodtracks.trackfood", "pk": 1490, "fields": {"applicant": "Brazuca Grill", "locationdescription": "CESAR CHAVEZ ST: EVANS AVE to KANSAS ST (2100 - 2550)", "address": "2150 CESAR CHAVEZ ST", "latitude": 37.75023688477907, "longitude": -122.3978180317186, "facilitytype": "Truck", "objectid": 1587556, "schedule": "http://bsm.sfdpw.org/PermitsTracker/reports/report.aspx?title=schedule&report=rptSchedule&params=permit=21MFF-00154&ExportPDF=1&Filename=21MFF-00154_schedule.pdf"}}, {"model": "foodtracks.trackfood", "pk": 1491, "fields": {"applicant": "Brazuca Grill", "locationdescription": "03RD ST: CESAR CHAVEZ ST to MARIN ST (3100 - 3199)", "address": "3150 03RD ST", "latitude": 37.74944293760035, "longitude": -122.38798553250405, "facilitytype": "Truck", "objectid": 1587551, "schedule": "http://bsm.sfdpw.org/PermitsTracker/reports/report.aspx?title=schedule&report=rptSchedule&params=permit=21MFF-00154&ExportPDF=1&Filename=21MFF-00154_schedule.pdf"}}, {"model": "foodtracks.trackfood", "pk": 1492, "fields": {"applicant": "Brazuca Grill", "locationdescription": "26TH ST: MINNESOTA ST to INDIANA ST (1000 - 1099)", "address": "1051 26TH ST", "latitude": 37.75126940587811, "longitude": -122.38989436694436, "facilitytype": "Truck", "objectid": 1587546, "schedule": "http://bsm.sfdpw.org/PermitsTracker/reports/report.aspx?title=schedule&report=rptSchedule&params=permit=21MFF-00154&ExportPDF=1&Filename=21MFF-00154_schedule.pdf"}}, {"model": "foodtracks.trackfood", "pk": 1493, "fields": {"applicant": "Brazuca Grill", "locationdescription": "DONNER AVE: HAWES ST to INGALLS ST (1300 - 1399)", "address": "1347 DONNER AVE", "latitude": 37.72145083973351, "longitude": -122.38935344507568, "facilitytype": "Truck", "objectid": 1587559, "schedule": "http://bsm.sfdpw.org/PermitsTracker/reports/report.aspx?title=schedule&report=rptSchedule&params=permit=21MFF-00154&ExportPDF=1&Filename=21MFF-00154_schedule.pdf"}}, {"model": "foodtracks.trackfood", "pk": 1494, "fields": {"applicant": "Brazuca Grill", "locationdescription": "MARKET ST: 10TH ST \\ FELL ST \\ POLK ST to 11TH ST (1401 - 1455) -- SOUTH --", "address": "1411 MARKET ST", "latitude": 37.7758255197583, "longitude": -122.41724962664344, "facilitytype": "Truck", "objectid": 1587569, "schedule": "http://bsm.sfdpw.org/PermitsTracker/reports/report.aspx?title=schedule&report=rptSchedule&params=permit=21MFF-00154&ExportPDF=1&Filename=21MFF-00154_schedule.pdf"}}, {"model": "foodtracks.trackfood", "pk": 1495, "fields": {"applicant": "Brazuca Grill", "locationdescription": "22ND ST: MISSISSIPPI ST to TEXAS ST (1255 - 1399)", "address": "1255 22ND ST", "latitude": 37.75701552445967, "longitude": -122.39406294711628, "facilitytype": "Truck", "objectid": 1587538, "schedule": "http://bsm.sfdpw.org/PermitsTracker/reports/report.aspx?title=schedule&report=rptSchedule&params=permit=21MFF-00154&ExportPDF=1&Filename=21MFF-00154_schedule.pdf"}}, {"model": "foodtracks.trackfood", "pk": 1496, "fields": {"applicant": "Brazuca Grill", "locationdescription": "INDIANA ST: 20TH ST to 22ND ST (800 - 999)", "address": "998 INDIANA ST", "latitude": 37.75803739348808, "longitude": -122.3916718906821, "facilitytype": "Truck", "objectid": 1587564, "schedule": "http://bsm.sfdpw.org/PermitsTracker/reports/report.aspx?title=schedule&report=rptSchedule&params=permit=21MFF-00154&ExportPDF=1&Filename=21MFF-00154_schedule.pdf"}}, {"model": "foodtracks.trackfood", "pk": 1497, "fields": {"applicant": "Natan's Catering", "locationdescription": "CONNECTICUT ST: 17TH ST to MARIPOSA ST (100 - 199)", "address": "146 CONNECTICUT ST", "latitude": 37.76444729556189, "longitude": -122.397987371508, "facilitytype": "Truck", "objectid": 1576228, "schedule": "http://bsm.sfdpw.org/PermitsTracker/reports/report.aspx?title=schedule&report=rptSchedule&params=permit=21MFF-00118&ExportPDF=1&Filename=21MFF-00118_schedule.pdf"}}, {"model": "foodtracks.trackfood", "pk": 1498, "fields": {"applicant": "Brazuca Grill", "locationdescription": "FOLSOM ST: ERIE ST to 14TH ST (1718 - 1799)", "address": "1750 FOLSOM ST", "latitude": 37.76890352056648, "longitude": -122.41598117460148, "facilitytype": "Truck", "objectid": 1587562, "schedule": "http://bsm.sfdpw.org/PermitsTracker/reports/report.aspx?title=schedule&report=rptSchedule&params=permit=21MFF-00154&ExportPDF=1&Filename=21MFF-00154_schedule.pdf"}}, {"model": "foodtracks.trackfood", "pk": 1499, "fields": {"applicant": "Brazuca Grill", "locationdescription": "NEWHALL ST: BITTING AVE to EGBERT AVE (2660 - 2899)", "address": "2660 NEWHALL ST", "latitude": 37.727212173900384, "longitude": -122.39963625164356, "facilitytype": "Truck", "objectid": 1587571, "schedule": "http://bsm.sfdpw.org/PermitsTracker/reports/report.aspx?title=schedule&report=rptSchedule&params=permit=21MFF-00154&ExportPDF=1&Filename=21MFF-00154_schedule.pdf"}}, {"model": "foodtracks.trackfood", "pk": 1500, "fields": {"applicant": "Natan's Catering", "locationdescription": "25TH ST: MARYLAND ST to MICHIGAN ST (400 - 699)", "address": "Assessors Block 4241/Lot002", "latitude": 37.75334000118106, "longitude": -122.38412838423729, "facilitytype": "Truck", "objectid": 1576218, "schedule": "http://bsm.sfdpw.org/PermitsTracker/reports/report.aspx?title=schedule&report=rptSchedule&params=permit=21MFF-00118&ExportPDF=1&Filename=21MFF-00118_schedule.pdf"}}, {"model": "foodtracks.trackfood", "pk": 1501, "fields": {"applicant": "Brazuca Grill", "locationdescription": "26TH ST: MINNESOTA ST to INDIANA ST (1000 - 1099)", "address": "1090 26TH ST", "latitude": 37.751608413578936, "longitude": -122.39030948950146, "facilitytype": "Truck", "objectid": 1587547, "schedule": "http://bsm.sfdpw.org/PermitsTracker/reports/report.aspx?title=schedule&report=rptSchedule&params=permit=21MFF-00154&ExportPDF=1&Filename=21MFF-00154_schedule.pdf"}}, {"model": "foodtracks.trackfood", "pk": 1502, "fields": {"applicant": "Eva's Catering", "locationdescription": "ORTEGA ST: 18TH AVE to 19TH AVE (1100 - 1199)", "address": "1199 ORTEGA ST", "latitude": 37.78350912221273, "longitude": -122.49007120809986, "facilitytype": "Truck", "objectid": 1587576, "schedule": "http://bsm.sfdpw.org/PermitsTracker/reports/report.aspx?title=schedule&report=rptSchedule&params=permit=21MFF-00155&ExportPDF=1&Filename=21MFF-00155_schedule.pdf"}}, {"model": "foodtracks.trackfood", "pk": 1503, "fields": {"applicant": "Brazuca Grill", "locationdescription": "INDIANA ST: 20TH ST to 22ND ST (800 - 999)", "address": "951 INDIANA ST", "latitude": 37.758786162305626, "longitude": -122.39095839869276, "facilitytype": "Truck", "objectid": 1587565, "schedule": "http://bsm.sfdpw.org/PermitsTracker/reports/report.aspx?title=schedule&report=rptSchedule&params=permit=21MFF-00154&ExportPDF=1&Filename=21MFF-00154_schedule.pdf"}}, {"model": "foodtracks.trackfood", "pk": 1504, "fields": {"applicant": "Brazuca Grill", "locationdescription": "CARROLL AVE: INGALLS ST to JENNINGS ST (1400 - 1499)", "address": "1420 CARROLL AVE", "latitude": 37.7235768564887, "longitude": -122.39005910139932, "facilitytype": "Truck", "objectid": 1587557, "schedule": "http://bsm.sfdpw.org/PermitsTracker/reports/report.aspx?title=schedule&report=rptSchedule&params=permit=21MFF-00154&ExportPDF=1&Filename=21MFF-00154_schedule.pdf"}}, {"model": "foodtracks.trackfood", "pk": 1505, "fields": {"applicant": "Brazuca Grill", "locationdescription": "TENNESSEE ST: 19TH ST to 20TH ST (800 - 899)", "address": "815 TENNESSEE ST", "latitude": 37.76150220396644, "longitude": -122.389276996081, "facilitytype": "Truck", "objectid": 1587544, "schedule": "http://bsm.sfdpw.org/PermitsTracker/reports/report.aspx?title=schedule&report=rptSchedule&params=permit=21MFF-00154&ExportPDF=1&Filename=21MFF-00154_schedule.pdf"}}, {"model": "foodtracks.trackfood", "pk": 1506, "fields": {"applicant": "Brazuca Grill", "locationdescription": "03RD ST: MARIN ST to ARTHUR AVE \\ CARGO WAY (3201 - 3399) -- EAST --", "address": "3255 03RD ST", "latitude": 37.748445338837655, "longitude": -122.38687903197965, "facilitytype": "Truck", "objectid": 1587553, "schedule": "http://bsm.sfdpw.org/PermitsTracker/reports/report.aspx?title=schedule&report=rptSchedule&params=permit=21MFF-00154&ExportPDF=1&Filename=21MFF-00154_schedule.pdf"}}, {"model": "foodtracks.trackfood", "pk": 1507, "fields": {"applicant": "Eva's Catering", "locationdescription": "20TH AVE: LAWTON ST to MORAGA ST (1600 - 1699)", "address": "1650 20TH AVE", "latitude": 37.75798419052856, "longitude": -122.43346578040662, "facilitytype": "Truck", "objectid": 1587577, "schedule": "http://bsm.sfdpw.org/PermitsTracker/reports/report.aspx?title=schedule&report=rptSchedule&params=permit=21MFF-00155&ExportPDF=1&Filename=21MFF-00155_schedule.pdf"}}, {"model": "foodtracks.trackfood", "pk": 1508, "fields": {"applicant": "Brazuca Grill", "locationdescription": "FRANCISCO ST: MASON ST to TAYLOR ST (500 - 599)", "address": "500 FRANCISCO ST", "latitude": 37.80504950905885, "longitude": -122.41433443693992, "facilitytype": "Truck", "objectid": 1587563, "schedule": "http://bsm.sfdpw.org/PermitsTracker/reports/report.aspx?title=schedule&report=rptSchedule&params=permit=21MFF-00154&ExportPDF=1&Filename=21MFF-00154_schedule.pdf"}}, {"model": "foodtracks.trackfood", "pk": 1509, "fields": {"applicant": "Brazuca Grill", "locationdescription": "PENNSYLVANIA AVE: 22ND ST to 23RD ST (700 - 899)", "address": "700 PENNSYLVANIA AVE", "latitude": 37.75692365373408, "longitude": -122.39354961053633, "facilitytype": "Truck", "objectid": 1587536, "schedule": "http://bsm.sfdpw.org/PermitsTracker/reports/report.aspx?title=schedule&report=rptSchedule&params=permit=21MFF-00154&ExportPDF=1&Filename=21MFF-00154_schedule.pdf"}}, {"model": "foodtracks.trackfood", "pk": 1510, "fields": {"applicant": "Brazuca Grill", "locationdescription": "OTIS ST: GOUGH ST \\ MCCOPPIN ST to 13TH ST \\ DUBOCE AVE \\ HWY 101 NORTHBOUND RAMP \\ MISSION ST (100 - 199)", "address": "150 OTIS ST", "latitude": 37.770683395042624, "longitude": -122.42087956139908, "facilitytype": "Truck", "objectid": 1587534, "schedule": "http://bsm.sfdpw.org/PermitsTracker/reports/report.aspx?title=schedule&report=rptSchedule&params=permit=21MFF-00154&ExportPDF=1&Filename=21MFF-00154_schedule.pdf"}}, {"model": "foodtracks.trackfood", "pk": 1511, "fields": {"applicant": "Brazuca Grill", "locationdescription": "03RD ST: 26TH ST to CESAR CHAVEZ ST (3000 - 3098) -- WEST --", "address": "3000 03RD ST", "latitude": 37.7504641155225, "longitude": -122.38790832590168, "facilitytype": "Truck", "objectid": 1587550, "schedule": "http://bsm.sfdpw.org/PermitsTracker/reports/report.aspx?title=schedule&report=rptSchedule&params=permit=21MFF-00154&ExportPDF=1&Filename=21MFF-00154_schedule.pdf"}}, {"model": "foodtracks.trackfood", "pk": 1512, "fields": {"applicant": "Natan's Catering", "locationdescription": "EVANS AVE: RANKIN ST to SELBY ST (1800 - 1890)", "address": "1801 EVANS AVE", "latitude": 37.74459119509166, "longitude": -122.39307688085802, "facilitytype": "Truck", "objectid": 1576229, "schedule": "http://bsm.sfdpw.org/PermitsTracker/reports/report.aspx?title=schedule&report=rptSchedule&params=permit=21MFF-00118&ExportPDF=1&Filename=21MFF-00118_schedule.pdf"}}, {"model": "foodtracks.trackfood", "pk": 1513, "fields": {"applicant": "Brazuca Grill", "locationdescription": "TENNESSEE ST: 18TH ST to 19TH ST (700 - 799)", "address": "790 TENNESSEE ST", "latitude": 37.761852397504114, "longitude": -122.38993209325044, "facilitytype": "Truck", "objectid": 1587543, "schedule": "http://bsm.sfdpw.org/PermitsTracker/reports/report.aspx?title=schedule&report=rptSchedule&params=permit=21MFF-00154&ExportPDF=1&Filename=21MFF-00154_schedule.pdf"}}, {"model": "foodtracks.trackfood", "pk": 1514, "fields": {"applicant": "Eva's Catering", "locationdescription": "BRANNAN ST: 05TH ST to 06TH ST \\ I-280 NORTHBOUND \\ I-280 SOUTHBOUND (600 - 699)", "address": "630 BRANNAN ST", "latitude": 37.77609875315735, "longitude": -122.40028723986816, "facilitytype": "Truck", "objectid": 1587579, "schedule": "http://bsm.sfdpw.org/PermitsTracker/reports/report.aspx?title=schedule&report=rptSchedule&params=permit=21MFF-00155&ExportPDF=1&Filename=21MFF-00155_schedule.pdf"}}, {"model": "foodtracks.trackfood", "pk": 1515, "fields": {"applicant": "Brazuca Grill", "locationdescription": "TEXAS ST: SIERRA ST to 22ND ST (632 - 699)", "address": "640 TEXAS ST", "latitude": 37.75791705669008, "longitude": -122.39547585248978, "facilitytype": "Truck", "objectid": 1587545, "schedule": "http://bsm.sfdpw.org/PermitsTracker/reports/report.aspx?title=schedule&report=rptSchedule&params=permit=21MFF-00154&ExportPDF=1&Filename=21MFF-00154_schedule.pdf"}}, {"model": "foodtracks.trackfood", "pk": 1516, "fields": {"applicant": "Chairman SF, LLC", "locationdescription": "ELLIS ST: 04TH ST \\ MARKET ST \\ STOCKTON ST to POWELL ST (1 - 99)", "address": "34 ELLIS ST", "latitude": 37.78756516537884, "longitude": -122.40959283347962, "facilitytype": "Truck", "objectid": 1587523, "schedule": "http://bsm.sfdpw.org/PermitsTracker/reports/report.aspx?title=schedule&report=rptSchedule&params=permit=21MFF-00153&ExportPDF=1&Filename=21MFF-00153_schedule.pdf"}}, {"model": "foodtracks.trackfood", "pk": 1517, "fields": {"applicant": "Brazuca Grill", "locationdescription": "ELM ST: FRANKLIN ST to GOUGH ST (300 - 399)", "address": "368 ELM ST", "latitude": 37.7813800275549, "longitude": -122.42314384550636, "facilitytype": "Truck", "objectid": 1587561, "schedule": "http://bsm.sfdpw.org/PermitsTracker/reports/report.aspx?title=schedule&report=rptSchedule&params=permit=21MFF-00154&ExportPDF=1&Filename=21MFF-00154_schedule.pdf"}}, {"model": "foodtracks.trackfood", "pk": 1518, "fields": {"applicant": "Eva's Catering", "locationdescription": "ORTEGA ST: 18TH AVE to 19TH AVE (1100 - 1199)", "address": "1900 19TH AVE", "latitude": 37.75212416311866, "longitude": -122.47587232222202, "facilitytype": "Truck", "objectid": 1587575, "schedule": "http://bsm.sfdpw.org/PermitsTracker/reports/report.aspx?title=schedule&report=rptSchedule&params=permit=21MFF-00155&ExportPDF=1&Filename=21MFF-00155_schedule.pdf"}}, {"model": "foodtracks.trackfood", "pk": 1519, "fields": {"applicant": "Brazuca Grill", "locationdescription": "23RD ST: START: 100-699 BLOCK to ILLINOIS ST (100 - 699)", "address": "601 23RD ST", "latitude": 37.755030726766726, "longitude": -122.38453073422282, "facilitytype": "Truck", "objectid": 1587541, "schedule": "http://bsm.sfdpw.org/PermitsTracker/reports/report.aspx?title=schedule&report=rptSchedule&params=permit=21MFF-00154&ExportPDF=1&Filename=21MFF-00154_schedule.pdf"}}, {"model": "foodtracks.trackfood", "pk": 1520, "fields": {"applicant": "Brazuca Grill", "locationdescription": "INDIANA ST: 26TH ST to CESAR CHAVEZ ST (1500 - 1599)", "address": "1575 INDIANA ST", "latitude": 37.75084960681246, "longitude": -122.3900276155014, "facilitytype": "Truck", "objectid": 1587566, "schedule": "http://bsm.sfdpw.org/PermitsTracker/reports/report.aspx?title=schedule&report=rptSchedule&params=permit=21MFF-00154&ExportPDF=1&Filename=21MFF-00154_schedule.pdf"}}, {"model": "foodtracks.trackfood", "pk": 1521, "fields": {"applicant": "Eva's Catering", "locationdescription": "INGALLS ST: CARROLL AVE to DONNER AVE (2600 - 2699)", "address": "2600 INGALLS ST", "latitude": 37.722629217598346, "longitude": -122.39006184632665, "facilitytype": "Truck", "objectid": 1587581, "schedule": "http://bsm.sfdpw.org/PermitsTracker/reports/report.aspx?title=schedule&report=rptSchedule&params=permit=21MFF-00156&ExportPDF=1&Filename=21MFF-00156_schedule.pdf"}}, {"model": "foodtracks.trackfood", "pk": 1522, "fields": {"applicant": "Brazuca Grill", "locationdescription": "03RD ST: MARIN ST to ARTHUR AVE \\ CARGO WAY (3201 - 3399) -- EAST --", "address": "3305 03RD ST", "latitude": 37.74383117213268, "longitude": -122.37779736896212, "facilitytype": "Truck", "objectid": 1587552, "schedule": "http://bsm.sfdpw.org/PermitsTracker/reports/report.aspx?title=schedule&report=rptSchedule&params=permit=21MFF-00154&ExportPDF=1&Filename=21MFF-00154_schedule.pdf"}}, {"model": "foodtracks.trackfood", "pk": 1523, "fields": {"applicant": "Eva's Catering", "locationdescription": "EVANS AVE: NAPOLEON ST \\ TOLAND ST to MARIN ST (2000 - 2099)", "address": "2045 EVANS AVE", "latitude": 37.747772091607466, "longitude": -122.39703171897756, "facilitytype": "Truck", "objectid": 1587580, "schedule": "http://bsm.sfdpw.org/PermitsTracker/reports/report.aspx?title=schedule&report=rptSchedule&params=permit=21MFF-00155&ExportPDF=1&Filename=21MFF-00155_schedule.pdf"}}, {"model": "foodtracks.trackfood", "pk": 1524, "fields": {"applicant": "Brazuca Grill", "locationdescription": "PENNSYLVANIA AVE: I-280 S OFF RAMP to 25TH ST (1050 - 1099)", "address": "1082 PENNSYLVANIA AVE", "latitude": 37.75336082945507, "longitude": -122.39304592079776, "facilitytype": "Truck", "objectid": 1587537, "schedule": "http://bsm.sfdpw.org/PermitsTracker/reports/report.aspx?title=schedule&report=rptSchedule&params=permit=21MFF-00154&ExportPDF=1&Filename=21MFF-00154_schedule.pdf"}}, {"model": "foodtracks.trackfood", "pk": 1525, "fields": {"applicant": "Chairman SF, LLC", "locationdescription": "MISSION ST: ECKER ST to SHAW ALY (521 - 548)", "address": "536 MISSION ST", "latitude": 37.78924890841371, "longitude": -122.39889295934644, "facilitytype": "Truck", "objectid": 1587524, "schedule": "http://bsm.sfdpw.org/PermitsTracker/reports/report.aspx?title=schedule&report=rptSchedule&params=permit=21MFF-00153&ExportPDF=1&Filename=21MFF-00153_schedule.pdf"}}, {"model": "foodtracks.trackfood", "pk": 1526, "fields": {"applicant": "Eva's Catering", "locationdescription": "05TH ST: WELSH ST to BRANNAN ST (530 - 599)", "address": "530 05TH ST", "latitude": 37.77687638877653, "longitude": -122.40025957520209, "facilitytype": "Truck", "objectid": 1587578, "schedule": "http://bsm.sfdpw.org/PermitsTracker/reports/report.aspx?title=schedule&report=rptSchedule&params=permit=21MFF-00155&ExportPDF=1&Filename=21MFF-00155_schedule.pdf"}}, {"model": "foodtracks.trackfood", "pk": 1527, "fields": {"applicant": "Brazuca Grill", "locationdescription": "03RD ST: MARIPOSA ST to 18TH ST (2000 - 2098) -- WEST --", "address": "2030 03RD ST", "latitude": 37.7636598013494, "longitude": -122.38913385740454, "facilitytype": "Truck", "objectid": 1587549, "schedule": "http://bsm.sfdpw.org/PermitsTracker/reports/report.aspx?title=schedule&report=rptSchedule&params=permit=21MFF-00154&ExportPDF=1&Filename=21MFF-00154_schedule.pdf"}}, {"model": "foodtracks.trackfood", "pk": 1528, "fields": {"applicant": "Brazuca Grill", "locationdescription": "TENNESSEE ST: MARIPOSA ST to 18TH ST (600 - 699)", "address": "640 TENNESSEE ST", "latitude": 37.76354048392964, "longitude": -122.39009664366294, "facilitytype": "Truck", "objectid": 1587542, "schedule": "http://bsm.sfdpw.org/PermitsTracker/reports/report.aspx?title=schedule&report=rptSchedule&params=permit=21MFF-00154&ExportPDF=1&Filename=21MFF-00154_schedule.pdf"}}, {"model": "foodtracks.trackfood", "pk": 1529, "fields": {"applicant": "Brazuca Grill", "locationdescription": "MINNESOTA ST: MINNESOTA ST to 26TH ST (1400 - 1499)", "address": "1400 MINNESOTA ST", "latitude": 37.75207458620838, "longitude": -122.39014490082212, "facilitytype": "Truck", "objectid": 1587570, "schedule": "http://bsm.sfdpw.org/PermitsTracker/reports/report.aspx?title=schedule&report=rptSchedule&params=permit=21MFF-00154&ExportPDF=1&Filename=21MFF-00154_schedule.pdf"}}, {"model": "foodtracks.trackfood", "pk": 1530, "fields": {"applicant": "Eva's Catering", "locationdescription": "ORTEGA ST: 18TH AVE to 19TH AVE (1100 - 1199)", "address": "1100 ORTEGA ST", "latitude": 37.752660520412284, "longitude": -122.4754735317814, "facilitytype": "Truck", "objectid": 1587574, "schedule": "http://bsm.sfdpw.org/PermitsTracker/reports/report.aspx?title=schedule&report=rptSchedule&params=permit=21MFF-00155&ExportPDF=1&Filename=21MFF-00155_schedule.pdf"}}, {"model": "foodtracks.trackfood", "pk": 1531, "fields": {"applicant": "Brazuca Grill", "locationdescription": "MARIPOSA ST: PENNSYLVANIA AVE to MISSISSIPPI ST (1000 - 1099)", "address": "1040 MARIPOSA ST", "latitude": 37.76420237830191, "longitude": -122.39428524233958, "facilitytype": "Truck", "objectid": 1587568, "schedule": "http://bsm.sfdpw.org/PermitsTracker/reports/report.aspx?title=schedule&report=rptSchedule&params=permit=21MFF-00154&ExportPDF=1&Filename=21MFF-00154_schedule.pdf"}}, {"model": "foodtracks.trackfood", "pk": 1532, "fields": {"applicant": "Brazuca Grill", "locationdescription": "PENNSYLVANIA AVE: MARIPOSA ST to I-280 S OFF RAMP (200 - 256)", "address": "208 PENNSYLVANIA AVE", "latitude": 37.76346295990656, "longitude": -122.39401294737716, "facilitytype": "Truck", "objectid": 1587535, "schedule": "http://bsm.sfdpw.org/PermitsTracker/reports/report.aspx?title=schedule&report=rptSchedule&params=permit=21MFF-00154&ExportPDF=1&Filename=21MFF-00154_schedule.pdf"}}, {"model": "foodtracks.trackfood", "pk": 1533, "fields": {"applicant": "Brazuca Grill", "locationdescription": "03RD ST: EGBERT AVE to FITZGERALD AVE (6000 - 6170) -- WEST --", "address": "6000 03RD ST", "latitude": 37.72397990389285, "longitude": -122.39590345491315, "facilitytype": "Truck", "objectid": 1587554, "schedule": "http://bsm.sfdpw.org/PermitsTracker/reports/report.aspx?title=schedule&report=rptSchedule&params=permit=21MFF-00154&ExportPDF=1&Filename=21MFF-00154_schedule.pdf"}}, {"model": "foodtracks.trackfood", "pk": 1534, "fields": {"applicant": "Brazuca Grill", "locationdescription": "03RD ST: MARIPOSA ST to 18TH ST (2001 - 2099) -- EAST --", "address": "2085 03RD ST", "latitude": 37.76329905604463, "longitude": -122.3884823068054, "facilitytype": "Truck", "objectid": 1587548, "schedule": "http://bsm.sfdpw.org/PermitsTracker/reports/report.aspx?title=schedule&report=rptSchedule&params=permit=21MFF-00154&ExportPDF=1&Filename=21MFF-00154_schedule.pdf"}}, {"model": "foodtracks.trackfood", "pk": 1535, "fields": {"applicant": "Brazuca Grill", "locationdescription": "ARMSTRONG AVE: HAWES ST to INGALLS ST (1300 - 1399)", "address": "1315 ARMSTRONG AVE", "latitude": 37.723078757516, "longitude": -122.38752570401662, "facilitytype": "Truck", "objectid": 1587555, "schedule": "http://bsm.sfdpw.org/PermitsTracker/reports/report.aspx?title=schedule&report=rptSchedule&params=permit=21MFF-00154&ExportPDF=1&Filename=21MFF-00154_schedule.pdf"}}, {"model": "foodtracks.trackfood", "pk": 1536, "fields": {"applicant": "F & C Catering", "locationdescription": "TENNESSEE ST: TENNESSEE ST to 26TH ST (1500 - 1599)", "address": "1500 TENNESSEE ST", "latitude": 37.75224166848031, "longitude": -122.38918854258944, "facilitytype": "Truck", "objectid": 1514026, "schedule": "http://bsm.sfdpw.org/PermitsTracker/reports/report.aspx?title=schedule&report=rptSchedule&params=permit=21MFF-00035&ExportPDF=1&Filename=21MFF-00035_schedule.pdf"}}, {"model": "foodtracks.trackfood", "pk": 1537, "fields": {"applicant": "Natan's Catering", "locationdescription": "EVANS AVE: NAPOLEON ST \\ TOLAND ST to MARIN ST (2000 - 2099)", "address": "2045 EVANS AVE", "latitude": 37.747772091607466, "longitude": -122.39703171897756, "facilitytype": "Truck", "objectid": 1576230, "schedule": "http://bsm.sfdpw.org/PermitsTracker/reports/report.aspx?title=schedule&report=rptSchedule&params=permit=21MFF-00118&ExportPDF=1&Filename=21MFF-00118_schedule.pdf"}}, {"model": "foodtracks.trackfood", "pk": 1538, "fields": {"applicant": "Natan's Catering", "locationdescription": "HARRISON ST: 26TH ST to KAMILLE CT (3000 - 3048)", "address": "3040 HARRISON ST", "latitude": 37.748848056566345, "longitude": -122.4126189946552, "facilitytype": "Truck", "objectid": 1576232, "schedule": "http://bsm.sfdpw.org/PermitsTracker/reports/report.aspx?title=schedule&report=rptSchedule&params=permit=21MFF-00118&ExportPDF=1&Filename=21MFF-00118_schedule.pdf"}}, {"model": "foodtracks.trackfood", "pk": 1539, "fields": {"applicant": "Brazuca Grill", "locationdescription": "EDDY ST: BUCHANAN ST to WEBSTER ST (1300 - 1399)", "address": "1346 EDDY ST", "latitude": 37.78186711757412, "longitude": -122.4298852476026, "facilitytype": "Truck", "objectid": 1587560, "schedule": "http://bsm.sfdpw.org/PermitsTracker/reports/report.aspx?title=schedule&report=rptSchedule&params=permit=21MFF-00154&ExportPDF=1&Filename=21MFF-00154_schedule.pdf"}}, {"model": "foodtracks.trackfood", "pk": 1540, "fields": {"applicant": "Brazuca Grill", "locationdescription": "SHOTWELL ST: 15TH ST to 16TH ST (100 - 199)", "address": "131 SHOTWELL ST", "latitude": 37.74793093611294, "longitude": -122.41519315390948, "facilitytype": "Truck", "objectid": 1587540, "schedule": "http://bsm.sfdpw.org/PermitsTracker/reports/report.aspx?title=schedule&report=rptSchedule&params=permit=21MFF-00154&ExportPDF=1&Filename=21MFF-00154_schedule.pdf"}}, {"model": "foodtracks.trackfood", "pk": 1541, "fields": {"applicant": "El Alambre", "locationdescription": "FRANKLIN ST: MYRTLE ST to GEARY BLVD (1150 - 1199)", "address": "1188 FRANKLIN ST", "latitude": 37.785271949066775, "longitude": -122.42260358516438, "facilitytype": "Truck", "objectid": 1590836, "schedule": "http://bsm.sfdpw.org/PermitsTracker/reports/report.aspx?title=schedule&report=rptSchedule&params=permit=22MFF-00008&ExportPDF=1&Filename=22MFF-00008_schedule.pdf"}}, {"model": "foodtracks.trackfood", "pk": 1542, "fields": {"applicant": "El Alambre", "locationdescription": "SHOTWELL ST: 14TH ST to 15TH ST (1 - 99)", "address": "1800 FOLSOM ST", "latitude": 37.76785244271805, "longitude": -122.41610489253188, "facilitytype": "Truck", "objectid": 1590833, "schedule": "http://bsm.sfdpw.org/PermitsTracker/reports/report.aspx?title=schedule&report=rptSchedule&params=permit=22MFF-00007&ExportPDF=1&Filename=22MFF-00007_schedule.pdf"}}, {"model": "foodtracks.trackfood", "pk": 1543, "fields": {"applicant": "El Gallo Jiro", "locationdescription": "23RD ST: TREAT AVE to FOLSOM ST (3052 - 3099)", "address": "3055 23RD ST", "latitude": 37.753927735726535, "longitude": -122.41332312961758, "facilitytype": "Truck", "objectid": 1509787, "schedule": "http://bsm.sfdpw.org/PermitsTracker/reports/report.aspx?title=schedule&report=rptSchedule&params=permit=21MFF-00011&ExportPDF=1&Filename=21MFF-00011_schedule.pdf"}}, {"model": "foodtracks.trackfood", "pk": 1544, "fields": {"applicant": "Singh Brothers Ice Cream", "locationdescription": "QUESADA AVE: CRISP RD to HAWES ST (1170 - 1199)", "address": "1191 QUESADA AVE", "latitude": 37.72774449070106, "longitude": -122.38210737524216, "facilitytype": "Truck", "objectid": 963992, "schedule": "http://bsm.sfdpw.org/PermitsTracker/reports/report.aspx?title=schedule&report=rptSchedule&params=permit=17MFF-0182&ExportPDF=1&Filename=17MFF-0182_schedule.pdf"}}, {"model": "foodtracks.trackfood", "pk": 1545, "fields": {"applicant": "El Alambre", "locationdescription": "14TH ST: FOLSOM ST to SHOTWELL ST (100 - 150)", "address": "1800 FOLSOM ST", "latitude": 37.76785244271805, "longitude": -122.41610489253188, "facilitytype": "Truck", "objectid": 1590834, "schedule": "http://bsm.sfdpw.org/PermitsTracker/reports/report.aspx?title=schedule&report=rptSchedule&params=permit=22MFF-00007&ExportPDF=1&Filename=22MFF-00007_schedule.pdf"}}, {"model": "foodtracks.trackfood", "pk": 1546, "fields": {"applicant": "El Alambre", "locationdescription": "FRANKLIN ST: OFARRELL ST \\ STARR KING WAY to MYRTLE ST (1100 - 1149)", "address": "1100 FRANKLIN ST", "latitude": 37.78484602775554, "longitude": -122.42256813313708, "facilitytype": "Truck", "objectid": 1590835, "schedule": "http://bsm.sfdpw.org/PermitsTracker/reports/report.aspx?title=schedule&report=rptSchedule&params=permit=22MFF-00008&ExportPDF=1&Filename=22MFF-00008_schedule.pdf"}}, {"model": "foodtracks.trackfood", "pk": 1547, "fields": {"applicant": "F & C Catering", "locationdescription": "MINNESOTA ST: 23RD ST to 24TH ST (1200 - 1299)", "address": "1275 MINNESOTA ST", "latitude": 37.754251708893726, "longitude": -122.3893812288799, "facilitytype": "Truck", "objectid": 1514031, "schedule": "http://bsm.sfdpw.org/PermitsTracker/reports/report.aspx?title=schedule&report=rptSchedule&params=permit=21MFF-00035&ExportPDF=1&Filename=21MFF-00035_schedule.pdf"}}, {"model": "foodtracks.trackfood", "pk": 1548, "fields": {"applicant": "Park's Catering", "locationdescription": "DAVIDSON AVE: RANKIN ST to SELBY ST (1600 - 1699)", "address": "1650 DAVIDSON AVE", "latitude": 37.74671130304029, "longitude": -122.3921503194526, "facilitytype": "Truck", "objectid": 1575185, "schedule": "http://bsm.sfdpw.org/PermitsTracker/reports/report.aspx?title=schedule&report=rptSchedule&params=permit=21MFF-00115&ExportPDF=1&Filename=21MFF-00115_schedule.pdf"}}, {"model": "foodtracks.trackfood", "pk": 1549, "fields": {"applicant": "Park's Catering", "locationdescription": "INNES AVE: ARELIOUS WALKER DR to GRIFFITH ST (800 - 899)", "address": "Assessors Block 4645/Lot015", "latitude": 37.73213495192223, "longitude": -122.37539807856734, "facilitytype": "Truck", "objectid": 1575191, "schedule": "http://bsm.sfdpw.org/PermitsTracker/reports/report.aspx?title=schedule&report=rptSchedule&params=permit=21MFF-00115&ExportPDF=1&Filename=21MFF-00115_schedule.pdf"}}, {"model": "foodtracks.trackfood", "pk": 1550, "fields": {"applicant": "Natan's Catering", "locationdescription": "HARRISON ST: MERLIN ST to OAK GROVE ST (924 - 950)", "address": "950 HARRISON ST", "latitude": 37.77838861578656, "longitude": -122.40319178322908, "facilitytype": "Truck", "objectid": 1576231, "schedule": "http://bsm.sfdpw.org/PermitsTracker/reports/report.aspx?title=schedule&report=rptSchedule&params=permit=21MFF-00118&ExportPDF=1&Filename=21MFF-00118_schedule.pdf"}}, {"model": "foodtracks.trackfood", "pk": 1551, "fields": {"applicant": "F & C Catering", "locationdescription": "03RD ST: 24TH ST to 25TH ST (2800 - 2898) -- WEST --", "address": "2800 03RD ST", "latitude": 37.75371741690213, "longitude": -122.3883590210436, "facilitytype": "Truck", "objectid": 1514029, "schedule": "http://bsm.sfdpw.org/PermitsTracker/reports/report.aspx?title=schedule&report=rptSchedule&params=permit=21MFF-00035&ExportPDF=1&Filename=21MFF-00035_schedule.pdf"}}, {"model": "foodtracks.trackfood", "pk": 1552, "fields": {"applicant": "Park's Catering", "locationdescription": "03RD ST: ARTHUR AVE \\ CARGO WAY to BURKE AVE (3400 - 3498) -- WEST --", "address": "3450 03RD ST", "latitude": 37.74572922168844, "longitude": -122.3877976508368, "facilitytype": "Truck", "objectid": 1575179, "schedule": "http://bsm.sfdpw.org/PermitsTracker/reports/report.aspx?title=schedule&report=rptSchedule&params=permit=21MFF-00115&ExportPDF=1&Filename=21MFF-00115_schedule.pdf"}}, {"model": "foodtracks.trackfood", "pk": 1553, "fields": {"applicant": "Street Meet", "locationdescription": "GROVE ST: 08TH ST \\ HYDE ST \\ MARKET ST to LARKIN ST (1 - 55)", "address": "30 GROVE ST", "latitude": 37.779159119969, "longitude": -122.4158078824267, "facilitytype": "Truck", "objectid": 1591779, "schedule": "http://bsm.sfdpw.org/PermitsTracker/reports/report.aspx?title=schedule&report=rptSchedule&params=permit=22MFF-00009&ExportPDF=1&Filename=22MFF-00009_schedule.pdf"}}, {"model": "foodtracks.trackfood", "pk": 1554, "fields": {"applicant": "San Francisco's Hometown Creamery", "locationdescription": "CALIFORNIA ST: SANSOME ST to LEIDESDORFF ST (400 - 448)", "address": "425 CALIFORNIA ST", "latitude": 37.79279574157871, "longitude": -122.40135328093122, "facilitytype": "Truck", "objectid": 1576375, "schedule": "http://bsm.sfdpw.org/PermitsTracker/reports/report.aspx?title=schedule&report=rptSchedule&params=permit=21MFF-00121&ExportPDF=1&Filename=21MFF-00121_schedule.pdf"}}, {"model": "foodtracks.trackfood", "pk": 1555, "fields": {"applicant": "Natan's Catering", "locationdescription": "ILLINOIS ST: 25TH ST to ILLINOIS ST (1500 - 1599)", "address": "Assessors Block 4296/Lot010", "latitude": 37.75240499247832, "longitude": -122.38700019629786, "facilitytype": "Truck", "objectid": 1576236, "schedule": "http://bsm.sfdpw.org/PermitsTracker/reports/report.aspx?title=schedule&report=rptSchedule&params=permit=21MFF-00118&ExportPDF=1&Filename=21MFF-00118_schedule.pdf"}}, {"model": "foodtracks.trackfood", "pk": 1556, "fields": {"applicant": "Street Meet", "locationdescription": "LARKIN ST: GROVE ST to FULTON ST (100 - 199)", "address": "100 LARKIN ST", "latitude": 37.779159119969, "longitude": -122.4158078824267, "facilitytype": "Truck", "objectid": 1591780, "schedule": "http://bsm.sfdpw.org/PermitsTracker/reports/report.aspx?title=schedule&report=rptSchedule&params=permit=22MFF-00009&ExportPDF=1&Filename=22MFF-00009_schedule.pdf"}}, {"model": "foodtracks.trackfood", "pk": 1557, "fields": {"applicant": "Wu Wei LLC dba MoBowl", "locationdescription": "FRONT ST: VALLEJO ST to GREEN ST (900 - 999)", "address": "900 FRONT ST", "latitude": 37.80022091559222, "longitude": -122.39956901857713, "facilitytype": "Truck", "objectid": 1535609, "schedule": "http://bsm.sfdpw.org/PermitsTracker/reports/report.aspx?title=schedule&report=rptSchedule&params=permit=21MFF-00076&ExportPDF=1&Filename=21MFF-00076_schedule.pdf"}}, {"model": "foodtracks.trackfood", "pk": 1558, "fields": {"applicant": "San Francisco's Hometown Creamery", "locationdescription": "PINE ST: SANSOME ST to CENTURY PL (300 - 340)", "address": "301 PINE ST", "latitude": 37.79183426305553, "longitude": -122.40127961659626, "facilitytype": "Truck", "objectid": 1576386, "schedule": "http://bsm.sfdpw.org/PermitsTracker/reports/report.aspx?title=schedule&report=rptSchedule&params=permit=21MFF-00122&ExportPDF=1&Filename=21MFF-00122_schedule.pdf"}}, {"model": "foodtracks.trackfood", "pk": 1559, "fields": {"applicant": "Natan's Catering", "locationdescription": "03RD ST: MARIN ST to ARTHUR AVE \\ CARGO WAY (3201 - 3399) -- EAST --", "address": "3201 03RD ST", "latitude": 37.748445338837655, "longitude": -122.38687903197965, "facilitytype": "Truck", "objectid": 1576223, "schedule": "http://bsm.sfdpw.org/PermitsTracker/reports/report.aspx?title=schedule&report=rptSchedule&params=permit=21MFF-00118&ExportPDF=1&Filename=21MFF-00118_schedule.pdf"}}, {"model": "foodtracks.trackfood", "pk": 1560, "fields": {"applicant": "Natan's Catering", "locationdescription": "17TH ST: MISSION ST to HOFF ST (3300 - 3343)", "address": "3335 17TH ST", "latitude": 37.76315639322651, "longitude": -122.42032223152648, "facilitytype": "Truck", "objectid": 1576238, "schedule": "http://bsm.sfdpw.org/PermitsTracker/reports/report.aspx?title=schedule&report=rptSchedule&params=permit=21MFF-00118&ExportPDF=1&Filename=21MFF-00118_schedule.pdf"}}, {"model": "foodtracks.trackfood", "pk": 1561, "fields": {"applicant": "Park's Catering", "locationdescription": "BURKE AVE: START: 1500-1599 BLOCK to 03RD ST (1500 - 1599)", "address": "1570 BURKE AVE", "latitude": 37.74475219161639, "longitude": -122.38567924872147, "facilitytype": "Truck", "objectid": 1575182, "schedule": "http://bsm.sfdpw.org/PermitsTracker/reports/report.aspx?title=schedule&report=rptSchedule&params=permit=21MFF-00115&ExportPDF=1&Filename=21MFF-00115_schedule.pdf"}}, {"model": "foodtracks.trackfood", "pk": 1562, "fields": {"applicant": "Park's Catering", "locationdescription": "NAPOLEON ST: EVANS AVE \\ TOLAND ST to JERROLD AVE (25 - 299)", "address": "250 NAPOLEON ST", "latitude": 37.746755554477474, "longitude": -122.40090627035904, "facilitytype": "Truck", "objectid": 1575195, "schedule": "http://bsm.sfdpw.org/PermitsTracker/reports/report.aspx?title=schedule&report=rptSchedule&params=permit=21MFF-00115&ExportPDF=1&Filename=21MFF-00115_schedule.pdf"}}, {"model": "foodtracks.trackfood", "pk": 1563, "fields": {"applicant": "Flavors of Africa", "locationdescription": "MISSION ST: SHAW ALY to ANTHONY ST (543 - 586)", "address": "560 MISSION ST", "latitude": 37.78886471534304, "longitude": -122.39935935136296, "facilitytype": "Truck", "objectid": 1591812, "schedule": "http://bsm.sfdpw.org/PermitsTracker/reports/report.aspx?title=schedule&report=rptSchedule&params=permit=22MFF-00017&ExportPDF=1&Filename=22MFF-00017_schedule.pdf"}}, {"model": "foodtracks.trackfood", "pk": 1564, "fields": {"applicant": "Wu Wei LLC dba MoBowl", "locationdescription": "DRUMM ST: CLAY ST to WASHINGTON ST (200 - 299)", "address": "253 DRUMM ST", "latitude": 37.79612338025215, "longitude": -122.39727320433803, "facilitytype": "Truck", "objectid": 1535608, "schedule": "http://bsm.sfdpw.org/PermitsTracker/reports/report.aspx?title=schedule&report=rptSchedule&params=permit=21MFF-00076&ExportPDF=1&Filename=21MFF-00076_schedule.pdf"}}, {"model": "foodtracks.trackfood", "pk": 1565, "fields": {"applicant": "F & C Catering", "locationdescription": "03RD ST: 24TH ST to 25TH ST (2800 - 2898) -- WEST --", "address": "2890 03RD ST", "latitude": 37.75310874987126, "longitude": -122.38817020206616, "facilitytype": "Truck", "objectid": 1514028, "schedule": "http://bsm.sfdpw.org/PermitsTracker/reports/report.aspx?title=schedule&report=rptSchedule&params=permit=21MFF-00035&ExportPDF=1&Filename=21MFF-00035_schedule.pdf"}}, {"model": "foodtracks.trackfood", "pk": 1566, "fields": {"applicant": "Park's Catering", "locationdescription": "BURKE AVE: START: 1500-1599 BLOCK to 03RD ST (1500 - 1599)", "address": "1575 BURKE AVE", "latitude": 37.74417844737573, "longitude": -122.38671592975922, "facilitytype": "Truck", "objectid": 1575184, "schedule": "http://bsm.sfdpw.org/PermitsTracker/reports/report.aspx?title=schedule&report=rptSchedule&params=permit=21MFF-00115&ExportPDF=1&Filename=21MFF-00115_schedule.pdf"}}, {"model": "foodtracks.trackfood", "pk": 1567, "fields": {"applicant": "Treats by the Bay LLC", "locationdescription": "MARKET ST: STEUART ST to SPEAR ST (1 - 99) -- SOUTH --", "address": "1 MARKET ST", "latitude": 37.79387150715064, "longitude": -122.39486523862108, "facilitytype": "Push Cart", "objectid": 1515717, "schedule": "http://bsm.sfdpw.org/PermitsTracker/reports/report.aspx?title=schedule&report=rptSchedule&params=permit=21MFF-00048&ExportPDF=1&Filename=21MFF-00048_schedule.pdf"}}, {"model": "foodtracks.trackfood", "pk": 1568, "fields": {"applicant": "Leo's Hot Dogs", "locationdescription": "MISSION ST: 19TH ST to 20TH ST (2300 - 2399)", "address": "2301 MISSION ST", "latitude": 37.76008693198698, "longitude": -122.41880648110114, "facilitytype": "Push Cart", "objectid": 1524385, "schedule": "http://bsm.sfdpw.org/PermitsTracker/reports/report.aspx?title=schedule&report=rptSchedule&params=permit=21MFF-00067&ExportPDF=1&Filename=21MFF-00067_schedule.pdf"}}, {"model": "foodtracks.trackfood", "pk": 1569, "fields": {"applicant": "Park's Catering", "locationdescription": "INNES AVE: EARL ST to ARELIOUS WALKER DR (700 - 799)", "address": "Assessors Block 4644/Lot008", "latitude": 37.730906150359694, "longitude": -122.37330257748522, "facilitytype": "Truck", "objectid": 1575190, "schedule": "http://bsm.sfdpw.org/PermitsTracker/reports/report.aspx?title=schedule&report=rptSchedule&params=permit=21MFF-00115&ExportPDF=1&Filename=21MFF-00115_schedule.pdf"}}, {"model": "foodtracks.trackfood", "pk": 1570, "fields": {"applicant": "F & C Catering", "locationdescription": "25TH ST: MICHIGAN ST to ILLINOIS ST (700 - 799)", "address": "700 25TH ST", "latitude": 37.75338080997486, "longitude": -122.38636768585714, "facilitytype": "Truck", "objectid": 1514027, "schedule": "http://bsm.sfdpw.org/PermitsTracker/reports/report.aspx?title=schedule&report=rptSchedule&params=permit=21MFF-00035&ExportPDF=1&Filename=21MFF-00035_schedule.pdf"}}, {"model": "foodtracks.trackfood", "pk": 1571, "fields": {"applicant": "Park's Catering", "locationdescription": "NEWHALL ST: MENDELL ST to EVANS AVE (200 - 399)", "address": "220 NEWHALL ST", "latitude": 37.74301424963152, "longitude": -122.38446024493484, "facilitytype": "Truck", "objectid": 1575198, "schedule": "http://bsm.sfdpw.org/PermitsTracker/reports/report.aspx?title=schedule&report=rptSchedule&params=permit=21MFF-00115&ExportPDF=1&Filename=21MFF-00115_schedule.pdf"}}, {"model": "foodtracks.trackfood", "pk": 1572, "fields": {"applicant": "Lerso", "locationdescription": "MISSION ST: 10TH ST to 11TH ST (1400 - 1499)", "address": "1450 MISSION ST", "latitude": 37.77522830783405, "longitude": -122.41746613186956, "facilitytype": "Truck", "objectid": 1591997, "schedule": "http://bsm.sfdpw.org/PermitsTracker/reports/report.aspx?title=schedule&report=rptSchedule&params=permit=22MFF-00026&ExportPDF=1&Filename=22MFF-00026_schedule.pdf"}}, {"model": "foodtracks.trackfood", "pk": 1573, "fields": {"applicant": "F & C Catering", "locationdescription": "PENNSYLVANIA AVE: 22ND ST to 23RD ST (700 - 899)", "address": "898 PENNSYLVANIA AVE", "latitude": 37.755534471603866, "longitude": -122.39392527753924, "facilitytype": "Truck", "objectid": 1514025, "schedule": "http://bsm.sfdpw.org/PermitsTracker/reports/report.aspx?title=schedule&report=rptSchedule&params=permit=21MFF-00035&ExportPDF=1&Filename=21MFF-00035_schedule.pdf"}}, {"model": "foodtracks.trackfood", "pk": 1574, "fields": {"applicant": "Park's Catering", "locationdescription": "CESAR CHAVEZ ST: EVANS AVE to KANSAS ST (2100 - 2550)", "address": "2323 CESAR CHAVEZ ST", "latitude": 37.748801377714486, "longitude": -122.40055245878467, "facilitytype": "Truck", "objectid": 1575181, "schedule": "http://bsm.sfdpw.org/PermitsTracker/reports/report.aspx?title=schedule&report=rptSchedule&params=permit=21MFF-00115&ExportPDF=1&Filename=21MFF-00115_schedule.pdf"}}, {"model": "foodtracks.trackfood", "pk": 1575, "fields": {"applicant": "Park's Catering", "locationdescription": "EVANS AVE: RANKIN ST to SELBY ST (1800 - 1890)", "address": "1801 EVANS AVE", "latitude": 37.74459119509166, "longitude": -122.39307688085802, "facilitytype": "Truck", "objectid": 1575187, "schedule": "http://bsm.sfdpw.org/PermitsTracker/reports/report.aspx?title=schedule&report=rptSchedule&params=permit=21MFF-00115&ExportPDF=1&Filename=21MFF-00115_schedule.pdf"}},